,FIPS_CLEANED,FIPS,Cases,Deaths,Lat,Long,State,County,POPUNI,Total_Population,Zero_RF,One-Two_RF,Three_RF,Housing_Units,Hispanic_Pop,White_Pop,Black_Pop,Native_Pop,Asian_Pop,Pacific_Islander_Pop,Other_race_Pop,Bi_Tri_Racial_Pop,Male_Pop,Female_Pop,Veteran,Gini_Ind_Income,Rural_Pop,Median_Age_Pop,Age_65+_Pop,Disability_Pop,Below_Poverty_Level,Single_Mothers_Pop,Single_Fathers_Pop,1.51_plus_family_homes,HighSchool_Grad,Multilingual_5yrs_Plus,Full_time_workers,No_Health_Insur,Internet_homes,No_Vehicle,Homeowner_Vacancy,Rental_Vacancy
0,01001,1001,19732,126307,32.53952745,-86.64408227, Alabama,Autauga County,55688,55380,20573,22750,12365,23493,1559,41543,10580,167,556,0,111,1169,27064,28623,7016,252,23388,21272,8353,10580,8464,3007,723,111,49283,779,29291,3953,44884,2450,779,1726
1,01003,1003,69641,401530,30.72774991,-87.72207058, Alabama,Baldwin County,221898,212830,78622,90552,52724,114164,10207,184397,20414,1553,1997,0,443,3328,107842,114055,26183,1017,93818,95416,44379,31509,23077,8654,2218,887,201483,3994,112058,19748,181512,7322,7322,96747
2,01005,1005,7451,60678,31.868263,-85.3871286, Alabama,Barbour County,22023,25361,5024,9171,7828,12013,969,10086,10438,66,110,0,88,264,11650,10372,1453,107,14929,8897,4096,4712,6761,2070,220,132,16120,572,8170,2488,13323,2246,836,1629
3,01007,1007,8067,66517,32.99642064,-87.1251146, Alabama,Bibb County,20393,22493,6280,8986,5127,9185,530,15192,4506,20,20,0,0,101,11012,9380,1631,91,13938,8340,3242,3507,3691,897,346,163,16130,265,8096,2182,14111,1264,305,1142
4,01009,1009,18616,146177,33.98210918,-86.56790593, Alabama,Blount County,57697,57681,18189,23950,15558,24323,5365,50138,865,57,230,0,230,865,28502,29194,4442,263,51898,23482,10327,8135,7846,2250,1038,115,46446,1961,27463,6231,42118,2365,403,4846
5,01011,1011,3020,37221,32.10030533,-85.71265535, Alabama,Bullock County,8600,10248,2074,3534,2992,4557,223,1840,6432,0,43,0,0,68,4678,3921,283,40,4417,3457,1376,1032,2485,997,731,0,6424,86,4274,980,5168,920,17,60
6,01013,1013,6518,82395,31.75300095,-86.68057478, Alabama,Butler County,19410,19828,5431,7643,6336,10089,271,10015,8734,19,58,0,0,310,8889,10520,1281,89,13825,7919,3823,3202,4367,1339,116,116,16498,77,9200,1688,12538,1455,718,4503
7,01015,1015,41228,372868,33.77483727,-85.82630386, Alabama,Calhoun County,111694,114618,35169,44189,32336,53631,4244,80531,23120,223,1005,0,223,2457,53724,57969,12062,517,37640,44230,19211,23679,19993,7260,781,446,94269,1675,51267,10610,83882,6701,2345,6254
8,01017,1017,10812,114178,32.91360079,-85.39072749, Alabama,Chambers County,33117,33660,9457,12798,10862,16988,794,18379,13114,99,364,0,33,331,15829,17287,2616,140,16277,13909,6358,5994,5729,1755,397,1192,27023,430,16889,3411,22983,2417,894,3079
9,01019,1019,6732,51229,34.17805983,-85.60638968, Alabama,Cherokee County,26116,25903,7374,11044,7698,16579,417,23948,1201,287,52,0,0,208,12875,13240,2376,117,22391,12143,5849,4648,3630,652,235,130,21310,182,12718,2245,18464,1175,861,3577
10,01021,1021,12956,125173,32.85044126,-86.7173256, Alabama,Chilton County,44257,44055,12461,20344,11452,19781,3452,35449,4071,44,177,0,44,973,21553,22703,3363,208,38388,17127,7081,8585,8453,2876,442,309,36202,1416,19959,5753,30404,2212,1283,3097
11,01023,1023,2255,25625,32.02227341,-88.2656443, Alabama,Choctaw County,12553,12925,2830,5421,4302,7359,50,7079,5347,12,12,0,12,50,5962,6590,1079,58,12553,5812,2836,3351,2924,815,50,25,10218,50,4632,1292,7694,1154,75,188
12,01025,1025,8529,63744,31.68099859,-87.83548597, Alabama,Clarke County,23522,24128,5797,10278,7447,12784,70,12396,10773,23,94,0,0,141,11125,12396,1458,121,17872,9996,4563,4281,5457,1129,493,23,18958,141,9150,2281,13525,1905,329,1058
13,01027,1027,5134,54527,33.26984193,-85.85836077, Alabama,Clay County,13159,13337,3217,5728,4214,6799,407,10579,2039,0,26,0,13,92,6355,6803,789,60,13159,5697,2658,2289,2355,1131,223,118,10092,13,6039,1355,9224,631,263,644
14,01029,1029,4393,43219,33.67679204,-85.52005899, Alabama,Cleburne County,14819,14916,5228,6006,3585,6844,370,13737,400,14,0,0,14,281,7261,7557,903,67,14819,6386,2874,3245,2563,400,44,14,11707,177,6713,1822,9528,740,148,903
15,01031,1031,17094,136984,31.39932826,-85.98901039, Alabama,Coffee County,52203,51662,17942,21267,12994,23188,3810,36594,8770,626,730,0,52,1618,25736,26466,8561,225,24639,20515,8613,9292,7882,4019,887,104,44842,1200,26153,5115,41762,3079,1096,3497
16,01033,1033,21197,155445,34.69847452,-87.80168544, Alabama,Colbert County,55083,54771,18099,22141,14843,26588,1542,43074,8868,330,275,55,55,936,26439,28643,4902,246,24175,23355,10686,10190,8537,2974,550,0,46930,550,26660,3965,38613,3029,771,5783
17,01035,1035,3589,41483,31.43401703,-86.99320044, Alabama,Conecuh County,12022,12394,3630,4119,4273,7182,84,6011,5746,24,60,0,0,96,5890,6131,709,51,9731,5385,2668,2692,2115,1045,72,48,10134,0,5025,1526,6335,817,240,2464
18,01037,1037,3755,33389,32.93690146,-86.24847739, Alabama,Coosa County,10511,10757,2829,4131,3551,6585,105,6811,3531,10,0,0,52,0,5339,5171,1093,47,10511,5087,2375,2407,1418,378,0,126,8408,52,4750,840,7305,420,388,367
19,01039,1039,11765,141132,31.2477854,-86.45050893, Alabama,Covington County,36877,37200,10089,15065,11723,18976,626,30718,4941,36,147,36,0,405,17811,19065,3687,169,25684,15967,7670,7781,6859,2397,221,147,30755,110,17700,4093,26072,1991,848,2433
20,01041,1041,4730,63378,31.72941803,-86.31593104, Alabama,Crenshaw County,13772,13844,3542,5703,4527,6815,110,9778,3181,96,179,13,0,426,6706,7065,908,67,13772,5742,2589,2823,2093,826,151,27,10907,165,6169,1198,8965,936,179,1446
21,01043,1043,31438,219365,34.13020303,-86.86888037, Alabama,Cullman County,83277,82853,25997,36832,20448,37842,3664,76531,999,249,333,0,83,1498,40972,42304,6662,367,60992,33977,15156,14740,12408,3747,1249,582,67954,1332,39639,9243,61708,3164,1665,5662
22,01045,1045,16436,141417,31.43037123,-85.61095742, Alabama,Dale County,49090,49277,14114,21082,13894,23103,3190,33675,9719,294,589,0,147,1472,24201,24888,8050,219,24981,18310,8050,10407,8639,2896,539,245,42266,1079,23514,5694,37799,2405,736,4712
23,01047,1047,10935,154379,32.32688101,-87.1086671, Alabama,Dallas County,36952,39149,9377,14920,12655,20419,406,10087,26014,36,221,0,0,184,17034,19917,2254,173,16864,14632,6429,6503,10753,4027,332,258,30226,110,15778,4101,25755,5173,997,2364
24,01049,1049,22466,199332,34.45946862,-85.80782906, Alabama,DeKalb County,71306,71310,22907,28714,19685,31309,10410,57330,998,784,71,142,0,1497,35296,36009,4492,336,64268,28165,11908,9626,15045,3565,926,356,53336,3921,33727,9768,51340,3707,1354,3921
25,01051,1051,29745,217944,32.59785413,-86.14415284, Alabama,Elmore County,77512,81144,29122,30362,18028,34165,2325,56738,16432,232,387,0,155,1240,37438,40073,8216,342,42003,29997,11549,13254,8913,4185,775,542,67125,1317,38368,5735,63172,3488,2092,5348
26,01053,1053,12347,100933,31.1256789,-87.15918694, Alabama,Escambia County,34309,37057,9184,14358,10767,16586,789,20654,10978,1372,102,34,34,308,17463,16845,2538,165,21789,13723,6072,6175,7616,2367,171,137,27824,205,13723,4871,20928,1749,686,3122
27,01055,1055,34137,386488,34.04567266,-86.04051873, Alabama,Etowah County,101051,102748,31759,41321,27971,47704,3940,78718,15561,404,707,0,101,1616,48706,52344,8488,464,37873,41835,18896,18593,17582,6568,1010,101,85489,2021,47595,10711,77304,6164,1313,8690
28,01057,1057,5871,60446,33.72076938,-87.73886638, Alabama,Fayette County,16197,16494,4306,6815,5076,8505,291,13686,1814,0,80,0,0,323,7985,8211,1360,74,12994,7078,3368,4227,3142,502,356,97,13378,32,7256,1230,11386,1214,323,1457
29,01059,1059,11996,88028,34.44235334,-87.84289505, Alabama,Franklin County,31274,31466,8663,13728,8883,14052,5379,24018,1344,93,125,0,0,312,15574,15699,1751,133,22007,12071,5285,4691,6067,1782,344,125,24143,2627,15793,3659,19358,1532,969,3659
30,01061,1061,7907,94027,31.09389027,-85.83572839, Alabama,Geneva County,26218,26417,8808,9731,7679,12869,1048,21996,2464,235,104,0,0,367,12741,13476,3041,115,23501,11326,5243,6187,5767,1415,367,78,21053,288,12427,3303,17592,1599,655,1179
31,01063,1063,2292,34790,32.85504247,-87.95684022, Alabama,Greene County,8111,8324,1533,3266,3312,5112,137,1395,6448,32,0,0,0,89,3747,4363,575,41,8111,3317,1727,2003,3090,656,64,32,6423,16,2968,1038,4160,1459,89,56
32,01065,1065,5705,72388,32.76039258,-87.63284988, Alabama,Hale County,14597,14809,3431,6341,4825,7792,0,5765,8670,29,29,0,29,58,6933,7663,1036,72,13016,5911,2744,3094,3532,1007,175,72,12261,58,5940,1386,8977,1459,189,0
33,01067,1067,5837,46292,31.51148016,-85.24267944, Alabama,Henry County,17135,17133,4737,6961,5437,9155,445,11857,4557,34,68,17,0,171,8327,8807,1576,75,15035,7607,3786,3272,2364,736,119,51,13605,85,7676,1679,12868,1079,462,3495
34,01069,1069,32514,303793,31.15197924,-85.29939599, Alabama,Houston County,105267,104702,34095,42801,28371,47457,3473,70002,28211,315,947,0,315,2105,50422,54844,10316,508,35580,42212,18105,18105,19158,8000,1157,315,90529,1157,50107,11053,78844,6526,2421,11895
35,01071,1071,18311,137591,34.78144169,-85.99750489, Alabama,Jackson County,51420,51852,15272,23252,12896,25041,1491,45866,1748,565,205,51,51,1336,25144,26275,3496,232,39603,22162,10026,9924,9564,2622,514,514,42781,308,23858,4884,36456,2211,617,2262
36,01073,1073,237792,1525521,33.55554728,-86.895063, Alabama,Jefferson County,648693,659680,223785,259699,165209,307874,25299,323697,277640,1297,10379,0,1297,9730,306831,341861,46705,3249,63766,244557,99898,99898,103790,50598,7135,2594,584472,16217,324995,59679,515062,49949,10379,58382
37,01075,1075,4716,39177,33.77995024,-88.09668032, Alabama,Lamar County,13753,13885,4016,5802,3935,7403,220,11827,1471,0,13,0,110,110,6725,7027,962,64,13753,6161,2956,3149,2833,701,27,82,11318,68,6642,1457,8650,948,165,1939
38,01077,1077,30323,240313,34.90171875,-87.65624729, Alabama,Lauderdale County,91069,92556,29027,38198,23844,45001,2458,77135,9197,364,546,91,91,1092,43895,47173,7376,419,44897,37338,17940,13387,13296,4280,1001,273,79594,1183,42802,8196,65842,5737,1639,7012
39,01079,1079,9368,99982,34.52041498,-87.31069453, Alabama,Lawrence County,32816,33058,10383,11619,10814,15296,721,25104,3478,1837,65,32,0,1607,15850,16965,1936,144,29957,13913,5939,6989,5906,1312,557,131,26023,262,14603,2986,20345,1936,164,984
40,01081,1081,47500,205914,32.60154883,-85.35132246, Alabama,Lee County,160116,161152,61304,69187,29625,68972,5924,107918,36346,320,6564,0,320,2721,78937,81178,12649,804,43887,51077,18573,20815,31382,9927,1601,2721,145545,4643,71892,12489,131295,7045,2882,11848
41,01083,1083,32058,171305,34.81185586,-86.98310072, Alabama,Limestone County,96560,94727,35386,41676,19498,36056,5793,73868,13132,675,1351,96,0,1641,48183,48376,9462,430,55628,38334,14580,15159,13132,4345,1834,772,81786,2027,45093,9269,77344,2896,1641,9559
42,01085,1085,3358,53929,32.1597283,-86.65158371, Alabama,Lowndes County,9692,10079,1711,4388,3593,5224,48,2393,7210,9,0,0,0,38,4632,5059,368,49,9692,4070,1783,2597,2597,1211,116,19,7588,0,4022,852,5097,1211,164,542
43,01087,1087,5267,53685,32.38759944,-85.69267724, Alabama,Macon County,16594,18708,3591,6940,6063,10296,132,2638,13690,16,33,0,16,82,7616,8977,1443,84,9217,6405,3202,3020,4048,1062,248,33,13573,16,6139,1244,9989,2041,265,1095
44,01089,1089,115627,567970,34.76327133,-86.55069633, Alabama,Madison County,366657,362276,146806,145829,74022,161577,17966,237227,87997,2199,9533,366,1099,10266,178928,187728,42898,1693,60278,141162,53898,48398,45832,21999,4399,1099,336224,8799,196528,30432,316791,17232,4766,22366
45,01091,1091,6078,68784,32.24767634,-87.78796182, Alabama,Marengo County,18794,19321,4654,7296,6844,10348,187,8438,10073,18,0,0,0,75,9039,9754,1184,103,13028,7931,3627,4754,4115,1277,56,37,15749,56,7329,1653,11220,1973,563,1259
46,01093,1093,10094,100280,34.13697363,-87.88704173, Alabama,Marion County,29285,29866,8302,13290,7693,14737,761,26912,995,146,58,0,0,439,14496,14788,1727,134,26019,12973,6179,7643,5124,1464,585,234,23310,292,13353,2547,19210,1727,585,5095
47,01095,1095,32869,239612,34.36975964,-86.30486727, Alabama,Marshall County,96357,95643,30492,40133,25732,40597,13489,77856,2601,385,578,96,96,1445,47600,48756,7901,453,51329,37386,16187,14164,19560,5877,1059,578,78627,7226,44324,11851,76603,4432,2119,3661
48,01097,1097,134503,1023017,30.78472347,-88.20842409, Alabama,Mobile County,409100,414114,130178,172950,105972,183671,11863,232777,145230,3272,7772,0,1636,6545,195140,213959,36409,1947,81901,155048,64637,57683,76910,31091,4091,1227,353871,6954,196777,45819,305188,29046,7772,36000
49,01099,1099,6720,47435,31.56729412,-87.36995001, Alabama,Monroe County,20678,21270,5156,7683,7839,11415,82,11228,8767,351,62,0,0,186,9884,10793,1674,113,16343,8953,3990,3018,5769,1881,144,0,17700,20,7568,2357,8229,2233,62,1137
50,01101,1101,73524,608689,32.2206831,-86.20969272, Alabama,Montgomery County,219377,226941,66055,92203,61119,104697,7678,74368,126799,219,6142,0,219,3729,103545,115831,21279,1081,23012,79853,32029,35100,42559,20840,2632,877,190199,6361,106617,21937,174404,17769,5265,20840
51,01103,1103,46347,303465,34.45500589,-86.85475946, Alabama,Morgan County,118554,119213,36978,52282,29294,52050,9958,89626,15056,592,711,118,118,2489,58328,60225,9602,536,45761,48132,20272,19679,17308,6757,1422,1304,99703,4505,59277,11381,89034,5927,1541,11025
52,01105,1105,2659,28957,32.64048341,-87.29770589, Alabama,Perry County,8349,9293,1935,3334,3080,4736,100,2446,5785,0,8,0,0,0,3832,4516,467,41,8349,3080,1594,1845,2571,651,91,0,6912,8,2588,776,4500,1085,83,133
53,01107,1107,6317,65229,33.28094866,-88.08818103, Alabama,Pickens County,18216,20243,4115,7662,6439,9588,892,9763,7249,18,18,18,0,236,8670,9545,1347,89,18216,7687,3369,4572,4135,1111,236,109,14846,510,7413,1657,12040,1876,200,728
54,01109,1109,9241,81038,31.80396383,-85.9408295, Alabama,Pike County,31132,33333,9048,14258,7826,16123,716,17433,11394,186,684,0,31,716,14912,16219,2210,167,16089,9713,4607,4981,7596,2148,249,124,26462,1245,12359,3019,20640,2179,778,5790
55,01111,1111,6500,48834,33.29526734,-85.45708831, Alabama,Randolph County,22498,22647,7317,8321,6860,12097,652,16940,4432,44,44,0,0,382,10979,11518,1732,108,18299,9764,4589,3914,3802,1034,112,269,17908,134,10686,2047,15703,1462,247,899
56,01113,1113,12995,50135,32.28725256,-85.18415324, Alabama,Russell County,57670,57952,18909,23747,15014,27680,3171,26585,25028,173,519,0,403,1845,27739,29930,7900,268,20420,20934,8016,10957,11937,5132,807,403,48327,1326,27335,6632,41118,5940,2191,7035
57,01115,1115,33164,255680,33.71902176,-86.31029372, Alabama,St. Clair County,88245,87989,29080,39201,19964,36714,2117,75802,8471,264,705,0,0,882,44122,44122,8206,358,64242,35562,14383,14825,10765,3000,1058,352,74655,794,45710,7500,69007,2823,1235,4500
58,01117,1117,77846,275328,33.26879845,-86.66232561, Alabama,Shelby County,215942,213432,92124,86509,37309,86988,12308,168218,25913,647,4534,0,431,3886,104515,111426,16843,948,49537,84865,32175,24401,16195,8637,1727,431,200178,6262,119415,13388,190676,6046,2591,17707
59,01119,1119,3164,35252,32.59117397,-88.19916205, Alabama,Sumter County,11680,12797,2586,4552,4542,6872,58,2896,8397,11,245,0,35,23,5407,6272,548,61,11680,4158,2044,2686,3714,1226,11,0,10126,233,3655,1460,7370,1273,81,128
60,01121,1121,28482,217277,33.37823223,-86.16886178, Alabama,Talladega County,77874,80387,21111,32746,24017,37861,1791,48749,25231,311,467,0,77,1168,37613,40260,6463,363,43469,32161,13627,16119,14873,6307,778,389,62532,1012,33641,7242,57237,6074,2491,3815
61,01123,1123,14566,165351,32.86698258,-85.79833053, Alabama,Tallapoosa County,40221,40541,10667,16669,12885,22421,965,27712,10859,80,160,0,0,442,19426,20794,3499,188,29856,17978,8446,7963,7601,2292,844,723,32458,361,18783,3298,30125,3177,1166,4142
62,01125,1125,70636,488253,33.28726072,-87.52556818, Alabama,Tuscaloosa County,200924,207305,70160,82045,48719,90557,7434,123568,64094,401,3214,0,0,2009,96845,104078,12256,939,51255,66304,25919,25316,35563,15672,2812,803,177415,4621,93228,14466,161542,12055,1004,11653
63,01127,1127,24045,287911,33.80270512,-87.30027177, Alabama,Walker County,63156,64110,18642,25330,19184,31141,1578,56145,3915,126,315,0,126,1010,31009,32146,4926,285,46792,26588,11999,15662,11431,2715,821,189,51661,694,27851,7452,45472,3410,1010,3852
64,01129,1129,4388,39364,31.4092794,-88.20689944, Alabama,Washington County,16259,16541,5665,5373,5221,8554,243,10552,3820,1186,48,0,16,390,8015,8243,1219,81,16259,7105,2991,3609,3430,975,146,32,13429,162,6438,1528,10048,699,48,1040
65,01131,1131,3645,30855,31.98773215,-87.30891118, Alabama,Wilcox County,10335,10681,2447,3513,4375,5777,51,2769,7172,10,0,0,0,320,4847,5487,485,50,10335,4185,1963,1984,3110,713,103,113,7906,93,3679,1126,5549,1612,134,103
66,01133,1133,9405,79562,34.15030532,-87.37325922, Alabama,Winston County,23573,23784,7156,8385,8032,13669,754,22087,165,70,47,23,0,447,11668,11904,1720,112,20011,10654,5021,5704,4148,1131,424,94,18575,306,9570,2899,15511,1249,636,1060
67,02013,2013,1331,2116,55.32222414,-161.9722021, Alaska,Aleutians East Borough,3337,3385,356,1660,1321,1138,300,440,106,1531,657,33,0,266,2005,1331,166,13,3337,1418,313,310,460,216,40,26,2853,750,1428,1545,2082,710,46,313
68,02016,2016,2000,1196,52.3233,-174.1596, Alaska,Aleutians West Census Area,5632,5698,1087,3516,1029,1983,794,1340,191,591,2230,152,5,332,3339,2292,343,19,5632,2173,343,456,382,264,123,281,5040,1019,3869,985,4347,850,67,202
69,02020,2020,124062,291398,61.14998174,-149.1426986, Alaska,Anchorage Municipality,286703,293531,100889,138615,47199,117380,26376,166001,15195,21216,26950,6880,860,23222,146218,140484,36124,1232,11812,96332,30103,32684,25803,14335,5160,4873,269214,16628,153386,32110,258032,17488,4873,20642
70,02050,2050,12883,23858,60.90980451,-159.8561831, Alaska,Bethel Census Area,18183,18134,1737,7594,8852,6027,472,1763,127,15000,200,36,0,563,9509,8673,981,81,13444,4963,1309,2000,5145,1181,636,3418,14710,2509,4618,3691,13328,10146,181,981
71,02060,2060,0,0,58.74513976,-156.701064, Alaska,Bristol Bay Borough,836,875,218,364,254,952,30,425,5,285,1,1,0,86,500,335,96,3,836,358,82,109,60,40,0,13,785,5,443,171,654,103,14,177
72,02068,2068,1802,585,63.67264044,-150.0076108, Alaska,Denali Borough,2097,2246,501,1250,346,1533,6,1765,25,46,54,0,4,195,1121,975,144,7,2097,882,195,312,341,23,37,31,2065,67,1314,387,1885,71,130,222
73,02070,2070,2265,5558,59.79603738,-158.2381942, Alaska,Dillingham Census Area,4914,4961,374,2411,2129,2456,181,756,78,3484,68,4,0,343,2515,2398,201,20,4914,1484,496,619,845,393,221,501,4240,314,1646,1027,3729,1882,39,329
74,02090,2090,33565,75068,64.80726247,-146.5692662, Alaska,Fairbanks North Star Borough,95680,99072,33512,46473,15695,44189,7654,66880,4114,6984,2966,478,95,6410,51571,44108,15787,391,29536,29947,9376,11098,7654,3922,2296,2583,90417,2296,50519,9376,82093,5262,2104,7558
75,02100,2100,806,436,59.09893571,-135.4679843, Alaska,Haines Borough,2530,2518,467,1223,840,1691,113,1960,0,220,32,5,0,197,1302,1227,230,10,2530,1130,635,301,285,30,12,101,2466,17,1295,339,2120,156,197,134
76,02105,2105,0,0,58.29307365,-135.6424424, Alaska,Hoonah-Angoon Census Area,2148,2139,232,1075,841,1643,146,940,64,773,34,0,0,189,1147,1000,234,9,2148,1065,440,343,221,60,23,23,2012,57,695,530,1376,648,96,264
77,02110,2110,11938,11376,58.45031811,-134.200436, Alaska,Juneau City and Borough,31315,32227,11588,13911,5816,13698,2129,20260,313,3225,2035,313,0,3068,16033,15281,2943,124,6745,11931,3914,3569,2411,1283,438,281,30187,1440,16377,3288,28402,2473,532,1064
78,02122,2122,22616,53685,60.24429722,-151.5388884, Alaska,Kenai Peninsula Borough,57717,58464,13788,32342,11587,31249,2424,46115,288,4444,923,173,346,3001,30070,27646,6348,253,45792,23548,9523,8542,6983,2193,1385,1327,53503,981,23433,9234,45885,3636,1385,4271
79,02130,2130,5139,10265,55.57445008,-130.975561, Alaska,Ketchikan Gateway Borough,13802,13800,4205,6641,2956,6401,731,8833,110,1849,1104,27,55,1104,7080,6721,1421,59,3200,5479,2056,2056,1324,607,276,262,12808,634,7370,1573,11704,1739,124,869
80,02150,2150,5870,6596,57.65529415,-153.7493579, Alaska,Kodiak Island Borough,12935,13451,3382,7122,2431,5422,1151,6338,25,1552,2936,38,51,827,6946,5988,1461,48,4051,4384,1267,1345,1008,724,116,194,11615,2095,6376,2224,10839,1306,426,607
81,02158,2158,4912,6671,62.1542916,-163.3967883, Alaska,Kusilvak Census Area,8314,8250,395,3134,4785,2231,91,299,8,7640,8,8,0,257,4497,3816,399,35,8314,2003,457,964,3242,773,365,2103,6559,482,1521,1654,5429,7316,0,216
82,02164,2164,1240,409,58.62403337,-156.2140589, Alaska,Lake and Peninsula Borough,1592,1393,214,747,631,1479,1,334,17,1111,27,6,1,93,856,735,90,6,1592,554,124,221,262,98,33,27,1400,52,471,531,1039,759,25,342
83,02170,2170,40705,116704,62.31305045,-149.5741743, Alaska,Matanuska-Susitna Borough,106841,105369,30364,57605,18872,41815,5235,84618,1175,6410,1495,213,106,7478,55557,51283,14744,450,53730,37608,12073,14209,11004,4273,2029,1388,99255,1816,43377,15812,92524,3632,2136,7692
84,02180,2180,7597,2080,64.90320724,-164.0353804, Alaska,Nome Census Area,9882,9988,918,4358,4606,4108,266,1452,79,7342,148,9,0,563,5207,4674,602,42,6528,2796,691,958,2124,573,395,1462,8360,494,3063,2045,7322,5573,29,385
85,02185,2185,5508,6609,69.31479216,-153.4836093, Alaska,North Slope Borough,9799,9792,1140,6053,2606,2618,195,3027,137,4977,529,186,0,734,5987,3811,695,40,5813,3449,676,1009,989,666,225,1254,8789,627,6565,1822,6839,3782,9,774
86,02188,2188,5752,7163,67.04919196,-159.7503946, Alaska,Northwest Arctic Borough,7575,7715,545,3356,3674,2745,113,818,83,6219,75,7,0,265,4113,3461,431,33,4352,2105,568,712,1977,583,333,1507,6249,310,2302,1946,5810,4984,0,257
87,02195,2195,926,2868,57.13978948,-132.9540995, Alaska,Petersburg Borough,3266,3257,662,1969,635,1782,382,2139,32,238,150,19,6,297,1727,1538,375,13,3266,1397,718,620,186,163,29,42,2929,146,1453,313,2681,516,35,258
88,02198,2198,1841,4366,55.76261984,-133.0511621, Alaska,Prince of Wales-Hyder Census Area,6203,6407,998,2890,2315,3430,241,2809,31,2388,86,37,6,607,3368,2834,564,26,6203,2561,992,1346,1073,223,136,117,5632,18,2171,1532,4081,657,130,719
89,02220,2220,3508,3436,57.24124555,-135.3206587, Alaska,Sitka City and Borough,8477,8640,2304,4451,1722,4225,576,5221,59,1042,567,8,16,991,4357,4119,762,35,1769,3348,1288,1051,737,381,93,76,8027,237,4136,1381,7137,1118,262,406
90,02230,2230,675,7,59.56149996,-135.3337748, Alaska,Skagway Municipality,1183,1107,381,531,271,601,67,971,39,60,9,0,3,31,647,535,73,3,1183,477,138,147,75,41,9,37,1120,13,656,215,997,113,11,56
91,02240,2240,2468,9539,63.87692095,-143.2127643, Alaska,Southeast Fairbanks Census Area,6893,6878,1771,3552,1570,3904,420,5080,20,958,186,6,0,234,3777,3115,965,27,6893,2536,937,1226,751,199,82,199,6196,468,2957,1178,4935,310,268,1433
92,02261,2261,0,0,61.47502768,-144.7126799, Alaska,Valdez-Cordova Census Area,9174,9243,2221,4386,2567,6181,477,6357,36,1275,376,55,36,559,4807,4366,1201,37,9174,3495,1128,944,715,284,192,155,8751,256,4531,1761,7375,605,256,1165
93,02275,2275,796,407,56.3202004,-132.0583731, Alaska,Wrangell City and Borough,2502,2502,393,1655,454,1512,125,1548,0,555,17,10,0,245,1356,1145,275,10,2502,1235,567,442,195,47,45,20,2164,7,940,470,1846,325,10,265
94,02282,2282,975,2526,59.8909808,-140.3601451, Alaska,Yakutat City and Borough,579,649,108,297,174,418,44,250,4,209,28,6,0,34,317,261,46,1,579,213,83,64,42,13,10,8,528,26,220,137,415,74,15,112
95,02290,2290,1742,5844,65.50815459,-151.3907387, Alaska,Yukon-Koyukuk Census Area,5230,5377,508,2136,2586,4090,141,1129,5,3577,36,0,0,345,2798,2431,507,24,5230,1840,747,821,1328,298,125,376,4497,104,1589,1417,2243,2745,99,590
96,04001,4001,35848,415600,35.39465006,-109.4892383, Arizona,Apache County,71232,71511,7439,26169,37624,32891,4487,12964,356,52070,213,0,71,997,35046,36185,4202,357,52754,24931,10684,10684,25287,4772,854,4701,57270,11254,21583,17879,26996,9117,1638,7693
97,04003,4003,38971,334590,31.87934684,-109.7516088, Arizona,Cochise County,123596,125867,32374,60946,30276,61108,43876,67977,4573,1112,2348,370,247,3089,62786,60809,23730,547,44865,50797,26820,21382,20516,6797,1606,865,108022,9887,57224,9640,98753,6797,4696,12606
98,04005,4005,52627,330824,35.83883429,-111.7707178, Arizona,Coconino County,131295,141274,36072,63104,32119,66086,18512,71030,1444,33874,2494,262,131,3676,64859,66435,8665,612,41318,40307,15755,16280,23107,5120,2100,4201,118821,6958,53043,14705,102672,6433,2888,13523
99,04007,4007,21354,238016,33.80190085,-110.8132779, Arizona,Gila County,53615,53546,10407,24563,18645,33542,10026,33402,321,8632,428,0,0,804,26539,27075,6916,237,22014,26914,15226,11527,11580,1715,643,911,46269,2037,22035,5361,35493,3163,2144,1876
100,04009,4009,14078,103777,32.93166885,-109.8882178, Arizona,Graham County,36046,37996,8598,18543,8905,13586,11895,18347,648,4505,216,36,0,360,19284,16761,2523,151,16739,12111,4938,4073,8146,2487,432,756,30747,2018,14238,2487,27358,2126,937,4541
101,04011,4011,2711,17915,33.21498827,-109.2405279, Arizona,Greenlee County,9466,9522,2260,5190,2016,4453,4430,4411,189,340,47,0,0,37,4950,4515,880,36,4408,3265,1173,1126,1258,227,359,369,8339,473,4638,435,7781,160,160,1628
102,04012,4012,5937,85336,33.72854224,-113.9810029, Arizona,La Paz County,20895,20793,2740,10443,7712,16300,5767,11993,188,2402,146,0,0,397,10760,10134,3029,101,11770,11805,8065,5432,4680,961,250,626,16068,1253,7877,3071,12913,1441,1859,1316
103,04013,4013,1526029,10718968,33.34835867,-112.4918154, Arizona,Maricopa County,4440795,4328810,1484100,2075025,881670,1740694,1376646,2451318,235362,71052,182072,8881,8881,106579,2193752,2247042,341941,20609,104802,1616449,657237,497369,612829,230921,71052,62171,3894577,390789,2335858,470724,3832406,262006,75493,257566
104,04015,4015,67042,873773,35.70471703,-113.7577902, Arizona,Mohave County,208241,207695,51917,98429,57895,114573,34151,160970,2082,4164,2290,416,208,3956,105161,103079,29778,927,47812,107452,61639,47062,34151,7704,3123,2082,179295,6871,84545,18533,166801,11245,4789,10203
105,04017,4017,48052,583952,35.3997715,-110.3218983, Arizona,Navajo County,109467,109270,18342,48274,42851,58011,12479,45209,766,47618,656,109,218,2298,54842,54624,9961,518,59265,40831,19047,20032,30541,7662,1313,3721,91295,9085,35686,14449,68416,10289,3612,6349
106,04019,4019,315154,2432638,32.0971334,-111.7890033, Arizona,Pima County,1030970,1027207,309958,486351,234661,459912,383520,533011,34022,25774,28867,1030,1030,23712,507237,523732,109282,4839,77528,396923,197946,157738,173202,53610,14433,11340,911377,86601,469091,94849,880448,84539,17526,70105
107,04021,4021,156407,983922,32.90525627,-111.3449483, Arizona,Pinal County,438153,432793,122061,222710,93382,174329,132322,248870,17964,18840,7010,1314,876,11391,228277,209875,46006,1841,95955,172194,87192,67475,57836,18840,5257,3943,375935,28479,183586,38557,368048,18402,10077,29356
108,04023,4023,19585,162035,31.52508998,-110.8479088, Arizona,Santa Cruz County,46301,46480,10603,21681,14017,18334,38661,6898,92,92,370,0,0,185,22178,24122,2361,231,12445,16992,8010,6111,10788,3333,601,648,35466,12825,19677,4722,34123,2361,1203,4120
109,04025,4025,59992,674197,34.59933926,-112.5538588, Arizona,Yavapai County,233003,228067,57679,116358,58966,116842,33785,187567,1398,3029,2097,233,233,4893,113938,119064,32154,1033,77356,124423,71298,41940,30290,5359,1864,1165,212032,7922,97628,22834,191528,9553,3495,12349
110,04027,4027,70844,801667,32.76895712,-113.9066674, Arizona,Yuma County,207535,209468,46887,101634,59014,92625,132407,64335,3528,1867,2490,207,0,2905,106880,100654,20961,919,21645,71807,38393,24904,40261,14112,3735,6018,152123,41507,92560,26356,162499,12037,3735,13282
111,05001,5001,7001,48184,34.29145151,-91.37277296, Arkansas,Arkansas County,17384,17914,5737,6911,4736,9468,556,12134,4502,34,0,0,0,173,8309,9074,1286,83,6033,7075,3302,3841,3007,1147,208,69,14585,156,9126,1182,11768,1390,677,1182
112,05003,5003,6221,41406,33.19153461,-91.7698471, Arkansas,Ashley County,19555,20270,5616,7998,5941,10183,1055,13336,4947,39,39,0,0,117,9484,10070,1212,91,10106,8154,3891,4047,3265,1055,58,117,16289,391,9034,1525,11987,1310,254,2952
113,05005,5005,10684,143235,36.28784385,-92.33782872, Arkansas,Baxter County,41877,41427,11148,18055,12674,22887,1005,39657,83,167,167,0,83,670,20310,21566,5737,189,27571,21859,12898,8584,5485,879,209,418,37144,251,20394,2177,31240,1633,586,4438
114,05007,5007,77170,510251,36.33644656,-94.25680817, Arkansas,Benton County,278162,265759,103315,121037,53810,105634,46174,203892,4450,3616,10570,1668,278,6954,138246,139915,21974,1275,69985,98469,36995,28094,26147,13073,3337,3337,246451,16967,166340,24756,194991,9179,4172,8623
115,05009,5009,11238,105038,36.3084504,-93.09374925, Arkansas,Boone County,37328,37331,13869,13448,10011,17020,933,35050,111,223,149,37,0,858,18440,18887,3956,162,23218,15789,7577,6943,5487,1082,671,298,32624,149,18253,2575,30235,2015,858,1978
116,05011,5011,3591,32578,33.46755808,-92.15980837, Arkansas,Bradley County,10710,10874,2410,4490,3810,5824,1649,5944,3084,0,10,0,21,10,5076,5633,996,48,5311,4348,1959,2420,2195,771,235,107,8675,546,5119,1178,7207,846,182,846
117,05013,5013,1191,5862,33.55598792,-92.49974403, Arkansas,Calhoun County,5014,5192,1195,2112,1707,2929,200,3635,1078,10,0,15,10,70,2522,2491,436,21,5014,2231,1062,1103,671,130,80,0,4221,20,2306,466,3178,310,90,847
118,05015,5015,7260,61557,36.3403856,-93.54270261, Arkansas,Carroll County,28274,27965,7537,13448,7289,13723,4241,22506,141,197,395,254,0,537,14052,14221,2997,130,20591,12723,6389,4269,4184,791,141,424,24400,1979,13345,3138,19452,1470,763,3308
119,05017,5017,3124,40106,33.26458973,-91.29539209, Arkansas,Chicot County,9493,10615,1807,3976,3710,5415,522,3673,5116,9,56,0,0,113,4689,4803,541,49,5152,4110,1898,2420,2743,711,75,28,7670,189,3540,882,5904,1414,408,1395
120,05019,5019,6397,47626,34.04613432,-93.17484713, Arkansas,Clark County,19674,22386,5573,7614,6487,10533,924,13516,4761,78,137,0,0,255,9227,10446,1534,84,10698,6630,3187,4190,3993,1613,216,413,17706,452,7731,1672,13496,1436,806,845
121,05021,5021,5125,56663,36.36826212,-90.4148172, Arkansas,Clay County,14480,14889,3639,7128,3713,8038,304,13799,101,43,0,0,0,231,7124,7355,1201,67,8522,6197,3055,3301,3055,868,333,101,11946,72,6921,941,9672,1303,362,1679
122,05023,5023,8021,78640,35.53864922,-92.02640019, Arkansas,Cleburne County,24839,25100,6567,11606,6666,16095,596,23522,99,298,173,0,0,173,12295,12543,3104,111,18758,12270,6656,4595,3477,844,298,74,21336,74,11450,2036,18703,770,1043,720
123,05025,5025,2667,25336,33.89723187,-92.18537045, Arkansas,Cleveland County,7956,8128,2511,3710,1735,4131,95,6730,1018,15,0,0,0,95,3922,4033,612,33,7956,3413,1630,1623,1463,381,103,39,7128,47,3842,437,4821,429,47,246
124,05027,5027,6756,60665,33.21230701,-93.22642793, Arkansas,Columbia County,21610,23776,5540,9797,6273,11666,583,12814,7757,43,237,0,21,172,10372,11237,1534,107,12423,7714,3695,4127,5402,1663,237,561,18562,259,8233,1534,13506,1188,475,1793
125,05029,5029,6570,38360,35.26205537,-92.70506566, Arkansas,Conway County,20766,20858,5865,9018,5883,9828,809,16945,2138,62,62,0,0,768,10113,10652,2263,99,14644,8825,3924,4776,3654,1536,207,124,18066,269,10403,1412,13580,1204,269,1432
126,05031,5031,47116,204521,35.83018283,-90.63235729, Arkansas,Craighead County,107689,107345,35655,46497,25537,45413,5492,81843,15614,215,1507,0,430,2584,52552,55136,7215,518,34643,36829,14538,18953,17876,8938,1399,538,96166,2584,54167,9476,87874,7430,1938,4738
127,05033,5033,18614,145867,35.58928601,-94.2446814, Arkansas,Crawford County,63132,62739,17871,27994,17267,26836,4861,53220,883,1136,1136,0,63,1830,31124,32007,5745,282,32803,24368,10353,12563,10858,3661,1199,378,53662,2209,31502,5113,45833,2840,883,5050
128,05035,5035,16665,134199,35.21247318,-90.30839406, Arkansas,Crittenden County,47304,48672,13564,19870,13870,21798,1229,19867,22611,141,331,0,47,3122,22516,24787,3122,221,9881,16651,6433,7947,10501,5203,473,425,39073,662,23084,3973,36092,4919,709,2743
129,05037,5037,5732,54448,35.29631396,-90.77185818, Arkansas,Cross County,16365,16824,4034,7786,4545,7956,163,11897,3060,32,0,0,0,1211,7871,8493,1243,75,9293,6693,2994,3256,2520,1096,278,16,13681,0,8886,1260,11553,1014,310,1751
130,05039,5039,2069,18458,33.97042763,-92.65167437, Arkansas,Dallas County,6715,7279,1726,2954,2035,4346,87,3565,2900,40,6,13,0,94,3310,3404,537,28,3534,2947,1490,1665,987,423,26,0,5633,13,3203,436,3921,624,382,1007
131,05041,5041,3642,25240,33.83011025,-91.25500948, Arkansas,Desha County,11361,11709,2525,4587,4249,6324,693,5135,5294,22,45,0,0,159,5396,5964,647,51,3569,4555,2124,2204,3306,1158,102,34,9213,568,5067,715,6248,1760,102,795
132,05043,5043,5617,43838,33.59035001,-91.71777921, Arkansas,Drew County,17565,18417,4770,7631,5164,8655,597,11645,5023,0,52,0,0,245,8606,8958,1387,86,8538,6569,2986,3495,3302,930,122,52,15263,87,7921,966,12207,1211,913,1756
133,05045,5045,42851,188445,35.14719007,-92.33717519, Arkansas,Faulkner County,122137,123624,45617,53677,22843,49842,5007,97709,13801,488,1587,122,366,2931,59724,62412,8793,570,47340,40060,14900,17465,20396,6228,1099,610,112121,1954,63022,10748,98198,5740,1709,12824
134,05047,5047,4475,43636,35.51202821,-93.89299569, Arkansas,Franklin County,17706,17738,4567,6906,6233,8024,531,16289,177,194,141,35,0,318,8711,8994,1806,80,14625,7294,3399,4036,4072,460,230,0,14819,0,7578,973,11030,1009,159,725
135,05049,5049,3100,54159,36.38177105,-91.81729127, Arkansas,Fulton County,12470,12231,1936,4845,5689,6842,199,11834,62,37,12,12,0,324,6222,6247,1496,53,11587,6035,3179,2930,2581,386,62,174,10674,124,4751,1508,7220,573,174,1147
136,05051,5051,26982,308456,34.57692074,-93.14921604, Arkansas,Garland County,98872,98555,25739,47384,25749,50869,5536,81173,8107,790,593,0,296,2372,47458,51413,10381,475,36483,44492,23037,19972,18390,5240,988,790,88094,2471,47063,10381,77713,7514,2867,11765
137,05053,5053,5231,37050,34.29017991,-92.42320562, Arkansas,Grant County,18202,18126,6424,7088,4690,8008,491,16855,473,36,0,18,0,345,8937,9264,1765,81,13656,7462,3239,3494,2639,582,182,18,16527,91,9374,873,13469,455,36,1984
138,05055,5055,19688,100385,36.1173546,-90.55832668, Arkansas,Greene County,45082,44937,15501,18831,10750,19007,1307,41926,856,135,180,0,45,676,22135,22946,3831,192,18713,17131,7077,10323,7393,2524,676,360,39762,270,21008,3471,34487,2344,1127,901
139,05057,5057,5622,35151,33.73325583,-93.66935133, Arkansas,Hempstead County,21481,21842,5809,9805,5867,10533,2749,11728,6444,64,21,64,0,386,10160,11320,1546,90,11979,8678,3845,3651,4876,1976,515,21,17743,1009,11191,1954,15659,1245,279,2276
140,05059,5059,13027,87190,34.31709259,-92.95396325, Arkansas,Hot Spring County,31642,33597,7811,13622,10209,14512,1107,26104,3607,158,126,0,0,537,16453,15188,2816,135,20874,13068,5917,7530,5695,1487,474,442,27148,411,13416,2246,20504,1866,221,917
141,05061,5061,4649,30974,34.09007427,-93.9934871, Arkansas,Howard County,13202,13311,3798,5512,3892,6262,1650,8462,2759,26,39,13,13,237,6336,6865,1003,67,8913,5175,2323,2323,2561,1412,211,105,11248,699,6534,1135,8726,844,290,1346
142,05063,5063,12748,133284,35.74242707,-91.57001641, Arkansas,Independence County,37286,37427,8552,18218,10516,16525,2349,33072,671,74,261,0,0,857,18270,19015,3281,170,25570,14653,6413,7494,6226,1752,708,37,32065,820,18195,3243,22371,1715,559,2013
143,05065,5065,4701,43218,36.09604046,-91.90847954, Arkansas,Izard County,12794,13570,2644,5898,4252,7279,294,11885,230,127,0,0,12,243,6665,6128,1599,54,12794,6128,3198,3428,1931,255,25,12,10721,25,5181,793,6870,869,396,345
144,05067,5067,7252,38710,35.59802983,-91.21494602, Arkansas,Jackson County,14680,17027,3807,5674,5199,7592,425,11274,1790,29,0,0,14,1130,7266,7413,1101,73,9550,5827,2569,3449,3581,895,278,88,11773,14,5035,1130,9615,778,440,1996
145,05069,5069,22306,187883,34.26767081,-91.92619839, Arkansas,Jefferson County,62033,69282,15686,26438,19909,33389,1302,24130,35048,186,620,62,62,682,30706,31326,4838,287,19180,24006,10421,11165,13771,5396,558,496,53410,930,25867,4218,37467,6141,1178,5024
146,05071,5071,8183,48645,35.56759135,-93.46036368, Arkansas,Johnson County,26006,26372,6574,11389,8043,11486,3614,20596,416,52,546,26,130,650,12794,13211,2184,116,18560,9986,4212,5253,5903,1404,442,156,20518,1586,11364,2886,16773,1508,416,1586
147,05073,5073,1502,16482,33.24116713,-93.60677071, Arkansas,Lafayette County,6570,6800,1075,2500,2995,4401,177,3850,2352,26,26,0,32,105,3324,3245,512,38,6570,3087,1530,1655,1701,466,0,59,5236,78,2746,538,4007,650,26,1123
148,05075,5075,6501,50183,36.04188196,-91.10867198, Arkansas,Lawrence County,16024,16549,4144,7393,4487,8005,240,15270,176,48,32,0,0,256,7947,8076,1346,70,10184,6537,3092,3749,2499,624,112,80,13476,32,7451,1057,11088,753,48,1586
149,05077,5077,3331,39758,34.78498904,-90.78383866, Arkansas,Lee County,7185,9194,1543,2920,2722,4364,179,2945,3973,14,14,0,0,50,4081,3103,323,36,4563,3053,1350,1738,1587,481,35,0,5446,79,2205,517,4217,1271,172,380
150,05079,5079,5494,46274,33.95317155,-91.74002806, Arkansas,Lincoln County,9616,13455,2256,4069,3291,4932,375,6173,2932,48,0,0,9,76,6154,3461,634,44,9616,3750,1452,2028,1923,423,28,48,7798,173,2394,711,5211,605,221,730
151,05081,5081,3881,60168,33.70375665,-94.23468591, Arkansas,Little River County,12259,12347,2742,5624,3893,6512,183,8936,2684,122,36,0,0,269,5921,6337,1066,55,8399,5259,2525,2562,1973,674,49,24,10910,36,5994,760,8213,956,147,674
152,05083,5083,6059,39953,35.21413234,-93.71951016, Arkansas,Logan County,21267,21668,5281,9408,6578,10163,638,19225,297,170,467,0,0,446,10484,10782,1850,90,15103,8932,4210,4678,3976,871,404,127,18332,255,9931,1403,15057,893,212,957
153,05085,5085,23914,145092,34.75392199,-91.88742357, Arkansas,Lonoke County,73245,72528,26274,33094,13877,29387,3296,62990,4101,512,585,219,73,1538,36036,37208,9228,304,32821,26514,9668,10327,8935,3955,1391,439,65261,1098,38453,5566,58742,3296,1684,3589
154,05087,5087,4842,33867,36.01038185,-93.72524943, Arkansas,Madison County,16576,16211,5544,7040,3992,7581,944,14802,16,165,198,99,16,314,8221,8354,1143,79,16576,7077,3132,3000,2884,679,66,248,13360,547,7691,1707,10724,944,66,1176
155,05089,5089,4083,47989,36.26844485,-92.68451899, Arkansas,Marion County,16678,16476,4703,6682,5293,9490,383,15693,83,100,150,0,0,266,8055,8622,2251,73,16678,8705,4686,3885,3035,617,83,50,14426,83,6737,950,12925,1084,633,1834
156,05091,5091,11599,90938,33.31403423,-93.89285258, Arkansas,Miller County,42334,43572,14350,17654,10330,19568,1397,28998,10414,296,169,0,211,846,20743,21590,3683,197,16937,16721,6942,7916,8509,3979,677,1016,36618,381,19685,3979,31327,3556,804,3767
157,05093,5093,16349,129718,35.76271485,-90.0519437, Arkansas,Mississippi County,40155,42126,10336,18730,11089,20559,1646,23410,13532,40,240,40,0,1244,19475,20679,2971,189,14564,14696,5822,8031,9757,4176,441,1003,32565,843,18431,2971,29152,4135,1164,5260
158,05095,5095,2309,20055,34.6815935,-91.20540287, Arkansas,Monroe County,6679,7050,1434,2497,2748,4422,40,3620,2871,20,26,0,0,100,3132,3546,474,30,4607,3159,1522,1576,1810,634,20,93,5269,40,3159,594,3807,841,40,133
159,05097,5097,1769,35416,34.53704874,-93.65824478, Arkansas,Montgomery County,8967,8950,2122,3689,3156,5845,385,8151,26,134,35,0,0,233,4483,4483,923,40,8967,4519,2403,2322,1909,269,62,0,7155,188,3568,914,5425,394,143,448
160,05099,5099,2764,29268,33.66340119,-93.30632432, Arkansas,Nevada County,8239,8351,1584,3475,3180,4606,0,5174,2842,16,0,0,0,197,4177,4061,568,33,5699,3649,1672,1721,1903,683,74,32,7448,0,3649,774,5075,411,181,527
161,05101,5101,2041,31594,35.91947491,-93.21612969, Arkansas,Newton County,7753,7812,1872,3663,2218,4690,31,7280,0,193,54,62,0,131,3837,3915,705,33,7753,3798,1977,1713,1224,170,85,23,6706,7,3015,387,4620,310,240,558
162,05103,5103,6753,65369,33.58839816,-92.87795984, Arkansas,Ouachita County,23313,23830,6951,9040,7322,13095,536,12845,9651,23,23,0,0,233,11120,12192,2028,106,13136,10024,4569,4639,5408,2354,186,629,20049,69,11306,1655,15689,1911,489,1235
163,05105,5105,3005,18863,34.9459153,-92.94372564, Arkansas,Perry County,10443,10355,3596,4010,2837,4974,302,9973,52,0,0,0,0,104,5211,5231,1190,43,10443,4563,2078,2495,1869,292,198,41,8855,31,4647,532,7080,626,281,1148
164,05107,5107,5875,57264,34.43268455,-90.84800154, Arkansas,Phillips County,17717,18606,4429,6254,7034,10211,336,6112,11197,0,0,0,0,70,8326,9390,1257,87,8498,6891,3206,3933,6112,1948,336,88,14226,17,7317,1488,11586,3082,939,1736
165,05109,5109,2957,26342,34.16250414,-93.65789349, Arkansas,Pike County,10628,10756,3274,4842,2512,5631,690,9288,435,53,42,0,0,116,5250,5377,988,47,10628,4580,2146,2858,1636,361,223,53,9288,286,4931,967,7120,499,148,765
166,05111,5111,10060,81968,35.57433534,-90.66268713, Arkansas,Poinsett County,23441,23896,5613,11212,6616,10998,703,20346,1078,23,23,0,0,1265,11415,12025,1312,100,16675,9399,4172,5227,5016,1711,421,70,18823,164,10196,2648,17346,1406,562,515
167,05113,5113,4639,86181,34.48254879,-94.22728802, Arkansas,Polk County,19943,20094,4188,9929,5826,10135,1316,17470,99,279,59,0,79,658,9652,10290,2433,98,14636,8754,4467,4646,4746,937,398,279,16931,518,8356,2094,13820,1136,498,1635
168,05115,5115,20939,126427,35.44871474,-93.03212219, Arkansas,Pope County,61211,63761,19348,25870,15993,26280,5508,51417,1775,367,612,0,0,1469,30054,31156,5325,287,33353,21607,9365,10834,11507,3795,1040,183,51723,2815,26626,5264,45847,3366,1163,6488
169,05117,5117,2413,24941,34.83624419,-91.55162157, Arkansas,Prairie County,8046,8189,2139,3545,2362,4558,136,6814,997,32,16,0,0,40,4023,4023,675,36,8046,3797,1882,1705,1190,450,32,56,6694,24,4208,627,4658,442,128,595
170,05119,5119,127532,739440,34.77054088,-92.31355101, Arkansas,Pulaski County,387868,392967,131090,162454,94324,184319,24047,202854,142347,775,8533,0,775,8533,185400,202467,35295,1974,47630,144286,58180,60895,65161,32580,5042,2327,350632,13187,207121,30641,304088,29090,10472,50810
171,05121,5121,6418,55475,36.3415714,-91.02455531, Arkansas,Randolph County,17829,17695,4826,7266,5737,8609,374,16741,196,106,17,53,0,338,8914,8914,1461,84,12020,7327,3547,3958,3351,855,570,124,14780,106,7951,1301,12141,873,481,713
172,05123,5123,8551,54645,35.02201976,-90.74828138, Arkansas,St. Francis County,21027,25900,5110,8396,7521,10990,1093,8410,11165,63,126,21,0,147,11438,9588,1408,103,10839,8158,3385,3889,5235,2060,294,105,17221,231,8221,1808,12174,2838,651,1976
173,05125,5125,36987,202120,34.64916145,-92.67583224, Arkansas,Saline County,121852,119415,45677,51817,24358,48619,5848,103086,8651,365,1584,121,121,2193,59707,62144,11941,486,44061,48253,21324,20227,11210,6214,2193,365,110397,2315,71770,7311,101624,5361,1218,8042
174,05127,5127,2845,23225,34.85588887,-94.0632176, Arkansas,Scott County,10281,10376,2673,4182,3426,5281,791,8666,20,195,71,0,0,524,5263,5017,925,44,7233,4184,2128,2518,1963,462,133,123,8132,154,4091,1028,5973,997,452,801
175,05129,5129,2547,24909,35.9109364,-92.69936482, Arkansas,Searcy County,7870,7908,1859,3763,2248,4936,188,7326,47,141,55,0,0,110,3982,3887,849,35,7870,3769,1991,1621,1723,165,125,39,6437,23,3352,511,4753,708,118,810
176,05131,5131,39253,317211,35.19605503,-94.27162713, Arkansas,Sebastian County,126838,127591,37840,57420,31578,56841,18010,88279,8498,1268,5707,0,126,4946,62023,64814,11161,594,26394,47691,19786,25113,23465,7863,2029,1648,106670,8498,63799,13191,96143,8624,3170,6595
177,05133,5133,7110,42857,33.99780401,-94.2424869, Arkansas,Sevier County,16978,17081,3897,8091,4990,6979,5670,9728,814,339,67,84,16,254,8539,8438,1256,78,10798,5993,2359,2410,3616,831,271,152,12988,2665,8370,2852,12835,747,84,560
178,05135,5135,5699,61438,36.16258158,-91.47819342, Arkansas,Sharp County,17417,17139,3150,7588,6679,9882,400,16267,121,52,17,0,0,557,8534,8882,2368,83,13944,8290,4511,4720,3866,853,296,121,14543,52,7053,1097,10154,975,261,470
179,05137,5137,3690,39730,35.86251946,-92.15684085, Arkansas,Stone County,12482,12475,3293,5176,4013,6919,237,11820,12,62,62,0,0,287,6191,6290,1298,57,12482,6253,3332,2820,2471,424,99,37,10135,12,4481,948,6315,636,137,162
180,05139,5139,11257,117205,33.16887091,-92.59746952, Arkansas,Union County,38496,39449,11485,16786,10225,20031,1539,23290,12588,269,269,0,115,423,18632,19863,2887,180,20980,15513,6621,6698,7352,2848,654,1000,32683,615,17400,2887,24136,1963,577,3965
181,05141,5141,4332,33464,35.58095779,-92.51295036, Arkansas,Van Buren County,16495,16642,3236,6646,6613,10488,511,15422,82,98,32,16,0,329,8148,8346,1517,74,16495,7917,4222,4189,3051,610,115,214,14037,82,6185,1583,10556,1121,428,1830
182,05143,5143,80618,396327,35.976844,-94.21800746, Arkansas,Washington County,232362,232289,76487,105249,50626,93611,39036,164744,8365,1858,5576,5344,929,6506,115948,116413,15800,1127,59229,74355,26489,24630,38107,10688,5111,2555,197507,20215,117575,26953,184030,13941,3253,9294
183,05145,5145,27037,166350,35.25688493,-91.74908296, Arkansas,White County,76082,78762,21828,36515,17739,33779,3271,67028,3195,456,532,0,0,1521,37128,38953,5934,350,41327,28074,12249,12325,11944,4108,912,456,64213,1293,34465,6314,57746,5021,1825,7151
184,05147,5147,2268,16921,35.18902527,-91.2439489, Arkansas,Woodruff County,6312,6533,1126,2930,2256,3878,31,4380,1773,0,56,0,0,69,2903,3408,403,31,6312,2871,1432,1502,1590,486,75,6,5156,0,3376,378,3370,675,82,530
185,05149,5149,7590,69661,35.00292371,-93.41171338, Arkansas,Yell County,21314,21464,4739,10559,6016,9840,4305,16049,447,85,213,0,0,234,10678,10635,1513,93,16865,8589,3708,4198,3538,1023,63,447,16667,1705,10614,1683,15026,1108,319,1385
186,06001,6001,399660,1224171,37.64629437,-121.8929271, California,Alameda County,1651538,1656754,531299,835216,285023,608096,369944,518582,170108,4954,493809,13212,4954,74319,812556,838981,61106,7623,6440,620978,222957,151941,163502,67713,18166,46243,1459959,284064,876966,72667,1468217,155244,9909,47894
187,06003,6003,143,0,38.59678594,-119.8223594, California,Alpine County,1129,1039,145,652,332,1767,141,598,10,340,11,0,0,27,601,527,106,5,1129,589,337,180,222,29,3,10,1029,40,335,100,932,71,42,372
188,06005,6005,11506,52814,38.44583082,-120.65696, California,Amador County,35620,38429,8602,18001,9017,18379,4951,27854,783,213,427,35,0,1317,19127,16492,4167,159,21521,17988,9510,6767,3526,1139,142,178,32058,926,13963,1674,30134,2065,890,2137
189,06007,6007,51756,243747,39.66727762,-121.6005252, California,Butte County,216365,225817,64072,105182,47111,96505,35267,155782,3245,1730,9736,432,216,9952,107100,109264,17092,1069,40892,80271,38945,37214,41325,8005,2596,1730,192997,11683,80271,13414,184775,14712,4327,16011
190,06009,6009,9612,68426,38.20537103,-120.552913, California,Calaveras County,45621,45514,11539,23900,10182,27995,5520,36907,319,182,684,0,45,1916,22719,22901,5428,201,34402,23722,12545,9626,5200,1277,958,273,41150,729,19115,2007,37546,729,1642,1870
191,06011,6011,5310,14381,39.17881957,-122.2331726, California,Colusa County,21421,21454,5130,10813,5478,8044,12724,7561,257,149,278,42,42,385,10967,10453,1135,97,6794,7561,3084,2613,2784,1306,428,364,15273,4455,9810,2099,17351,1242,449,1049
192,06013,6013,293639,836295,37.91923498,-121.9289527, California,Contra Costa County,1150025,1142251,399056,561581,189388,413719,294406,503710,96602,2300,189754,5750,3450,54051,562362,587662,60951,5372,9085,456559,177103,128802,100052,57501,13800,17250,1029272,155253,571562,58651,1054572,59801,9200,35650
193,06015,6015,8392,25755,41.74228275,-123.8974063, California,Del Norte County,24980,27495,6378,12698,5904,11379,4921,15462,824,1773,774,49,149,1024,13389,11590,2373,118,8410,9867,4296,4996,4871,1348,574,299,20008,949,7768,1623,19909,2148,624,24
194,06017,6017,39031,123293,38.77965956,-120.5233166, California,El Dorado County,192285,188563,65945,90433,35907,90333,24612,149597,1538,961,8652,576,384,5960,95757,96527,17305,876,66722,88258,39418,25381,16151,6153,1730,1153,179594,6922,87681,8845,167672,8075,2115,7499
195,06019,6019,328084,1718748,36.75733899,-119.6466953, California,Fresno County,988669,984521,232270,494361,262038,331142,524983,290668,44490,4943,99855,988,1977,21750,493345,495323,50422,4692,106875,318351,118640,130504,222450,75138,17796,29660,751388,183892,408320,82059,792912,82059,12852,33614
196,06021,6021,7788,26100,39.59875897,-122.3938452, California,Glenn County,28163,27976,7548,15289,5326,11008,11772,14503,197,394,816,0,0,478,14306,13856,1943,125,11510,10251,4477,4280,4928,1492,394,197,21065,4139,11856,2422,20164,1154,28,506
197,06023,6023,29183,78344,40.69923009,-123.876044, California,Humboldt County,132753,135940,35888,66364,30501,63089,15399,98768,1327,6106,3982,398,132,6637,65978,66774,9823,642,39507,50977,22966,21904,26683,5973,2655,2256,120141,4513,51109,10885,110848,9823,1194,3849
198,06025,6025,88524,652313,33.0393082,-115.3669042, California,Imperial County,173325,180701,33219,86362,53744,57690,145939,18372,3639,1039,2253,173,173,1559,88915,84409,7452,815,30193,56157,21838,24958,41771,13692,2426,5719,120807,58757,56330,13866,134326,13519,2599,6759
199,06027,6027,6048,36279,36.51112084,-117.4111978, California,Inyo County,17882,17977,3866,8847,5169,9572,4005,11122,143,1823,321,35,35,411,9012,8869,1895,73,8302,8189,4077,2539,1663,464,107,53,15843,894,8744,1037,14359,929,71,822
200,06029,6029,308788,1438257,35.34329425,-118.7277796, California,Kern County,872675,887641,208365,425661,238649,298117,465135,298454,45379,4363,40143,872,872,18326,446809,425865,49742,4073,89100,275765,93376,96866,183261,60214,15708,23562,646652,159699,345579,68941,695521,60214,17453,45379
201,06031,6031,67224,273393,36.07409056,-119.8159973, California,Kings County,139108,150691,32621,72070,34417,46181,75813,44792,8068,1251,5146,278,278,3616,76648,62459,12797,594,15093,44236,13910,16971,25317,10572,3338,2643,102105,28795,57868,10433,111842,7790,1808,3477
202,06033,6033,14898,77155,39.10124298,-122.7536244, California,Lake County,63990,64195,14820,31710,17460,34845,13181,45112,1343,1919,703,63,127,1599,31739,32250,6782,308,21187,29179,14269,12798,11902,2495,703,831,54903,4287,23036,4543,49016,3711,1791,2623
203,06035,6035,11310,33290,40.67311306,-120.5935099, California,Lassen County,23121,30818,6200,11569,5352,12783,4392,15121,1965,624,323,184,23,485,15259,7861,1757,96,16307,8462,3283,4254,3121,1017,346,69,19236,1549,6265,1017,18219,1271,670,947
204,06037,6037,3691301,21934414,34.30828379,-118.2282411, California,Los Angeles County,9949102,10081570,2503900,5264628,2180574,3542800,4825314,2606664,776029,19898,1432670,19898,29847,228829,4904907,5044194,328320,49765,60689,3631422,1323230,984961,1482416,507404,119389,467607,7869739,2347988,4855161,955113,8387092,875520,99491,338269
205,06039,6039,54990,231218,37.21513971,-119.7665589, California,Madera County,150717,155433,32466,80737,37514,50677,87114,51394,4672,1507,2863,150,301,2712,72645,78071,8440,666,49616,51394,20798,19593,29992,9193,2110,3918,108365,28937,59533,12509,120422,6782,3315,6028
206,06041,6041,54594,209069,38.07122463,-122.7210631, California,Marin County,253478,259943,86223,122699,44556,113084,40556,180476,5323,506,14701,253,2281,9632,123697,129780,12927,1312,16526,118627,54751,23066,18250,8364,3295,5069,236494,22306,122429,8871,231425,11659,1267,6843
207,06043,6043,4533,16405,37.57978556,-119.9073334, California,Mariposa County,17066,17420,3663,7996,5407,10411,1928,13652,255,324,204,51,17,648,8686,8379,1740,72,17066,8823,4693,3481,2594,767,341,85,15461,392,6877,955,12782,785,1075,2047
208,06045,6045,21667,71834,39.4381191,-123.3911313, California,Mendocino County,86116,87224,19153,44166,22797,40960,21615,56147,602,2927,1722,172,86,2841,42713,43402,7492,405,38950,37115,18256,14639,15328,4133,1550,1205,74490,7233,33499,7405,69840,5511,1033,1377
209,06047,6047,88999,503512,37.18922369,-120.7209035, California,Merced County,272333,271382,65919,143509,62905,85251,162310,75163,7897,816,19607,544,272,5446,137528,134804,13071,1285,38861,84695,29956,35403,57734,20152,4901,5446,188182,61819,108660,22603,228487,18790,2450,9531
210,06049,6049,1323,4734,41.58965602,-120.7244817, California,Modoc County,8685,8907,2143,4327,2215,5258,1259,6748,130,364,95,8,0,78,4507,4177,946,34,6076,4151,2344,1589,1632,269,243,52,7364,495,3326,1085,6053,330,503,52
211,06051,6051,3623,3890,37.93899289,-118.8872409, California,Mono County,14385,14310,3548,7287,3550,14116,3883,9350,57,244,359,0,100,374,7667,6717,877,59,6592,5423,2057,762,1740,445,187,0,12745,1050,7264,2315,12097,546,935,5308
212,06053,6053,120991,454867,36.21862405,-121.2413397, California,Monterey County,421328,433410,95201,234628,91499,141820,247319,125977,10533,842,22751,2106,421,11797,214877,206450,22751,1925,41374,144936,55615,37076,55193,19381,5477,20645,301249,115022,185805,41290,354758,19381,5898,18538
213,06055,6055,35842,86631,38.50735751,-122.332839, California,Napa County,136367,139623,41632,68806,25929,55602,46501,71456,2727,409,10909,272,545,3545,68047,68319,9136,642,18273,56319,25364,16091,10636,5727,1500,2318,116593,21000,68183,8045,121502,6681,1363,5727
214,06057,6057,22422,75052,39.30394768,-120.7627281, California,Nevada County,99421,99244,26219,52431,20771,53989,9345,84706,497,397,1093,99,99,3181,49014,50406,9743,466,41886,50207,26346,14217,10936,3082,1093,894,93853,1789,42154,6462,85203,3976,1988,3380
215,06059,6059,783685,4614224,33.70147516,-117.7645998, California,Orange County,3154014,3168044,941386,1652949,559679,1100449,1075518,1280529,50464,6308,640264,9462,6308,88312,1558082,1595931,138776,14776,4415,1201679,454178,268091,343787,126160,37848,97774,2696681,605570,1583315,239705,2860690,138776,31540,113544
216,06061,6061,90984,357900,39.06167234,-120.7240569, California,Placer County,397084,385512,154416,178853,63815,164176,55591,288680,6750,1588,29384,397,397,14692,193776,203307,34546,1773,54757,166775,75843,42090,30575,12706,5559,1985,375244,17868,198144,15883,355787,15089,3970,19060
217,06063,6063,4284,6637,40.00355989,-120.8395236, California,Plumas County,18630,18660,4815,9559,4256,15830,1658,15481,149,260,204,93,93,670,9259,9370,2254,86,13789,9743,5048,3073,2254,540,130,55,17717,316,7452,577,14512,931,875,1061
218,06065,6065,774340,4215973,33.74314981,-115.9933578, California,Riverside County,2449184,2411439,699353,1277020,472811,840501,1197650,864561,149400,9796,154298,7347,4898,58780,1219693,1229490,166544,11197,113152,871909,345334,284105,335538,124908,31839,44085,2008330,369826,1099683,215528,2120993,102865,46534,117560
219,06067,6067,406986,1921470,38.45106826,-121.3425374, California,Sacramento County,1539857,1524553,503571,735164,301122,570752,357246,688316,146286,6159,237137,16938,4619,83152,752990,786866,103170,6987,31721,557428,210960,181703,226358,90851,26177,21557,1350454,201721,739131,84692,1353534,101630,16938,50815
220,06069,6069,18723,62782,36.60308176,-121.069975, California,San Benito County,62781,60376,16967,32605,13209,18970,37543,21533,502,188,1820,62,125,1130,31327,31453,3704,254,15067,22412,7847,5650,5273,3013,1067,1695,50538,10421,29444,4708,56628,1632,251,878
221,06071,6071,743194,4681362,34.84060306,-116.1774685, California,San Bernardino County,2160610,2149031,587696,1130265,442649,720757,1151605,615773,170688,8642,151242,6481,4321,54015,1075983,1084626,125315,9452,102196,719483,244148,237667,345697,142600,34569,51854,1728488,321930,967953,181491,1823554,103709,36730,86424
222,06073,6073,1062026,3468633,33.03484597,-116.7365326, California,San Diego County,3298811,3316073,1041606,1674471,582734,1213891,1111699,1504257,155044,13195,382662,13195,6597,112159,1659301,1639509,283697,15263,108860,1180974,451937,326582,382662,151745,42884,75872,2883160,451937,1656003,257307,2975527,181434,36286,128653
223,06075,6075,208522,560340,37.75215114,-122.4385672, California,San Francisco County,871443,874961,276805,420764,173874,397812,132459,352934,43572,1742,297162,2614,3485,36600,444435,427007,27014,4443,0,332891,134202,88887,89758,20914,5228,35729,771227,169931,502822,32243,763384,269275,6971,25271
224,06077,6077,226119,1412996,37.93433732,-121.2730061, California,San Joaquin County,752585,742603,203038,389271,160276,243260,311570,239322,50423,1505,114392,3762,752,29350,374787,377797,40639,3408,63743,258136,94073,94073,109124,45155,12793,14299,596799,124929,334147,48165,623892,45907,6020,27093
225,06079,6079,74408,284850,35.38822029,-120.4039028, California,San Luis Obispo County,270379,282165,81633,133695,55051,122005,60835,186291,4596,1351,9463,270,270,7029,137082,133296,19737,1215,44882,105988,52453,31363,33797,8111,2703,2974,246856,16222,118155,16222,237933,11626,4326,11355
226,06081,6081,193626,492014,37.4228808,-122.3275546, California,San Mateo County,764562,767423,259249,383407,121906,277773,186553,299708,16820,1529,216371,9939,3058,30582,377693,386868,31347,3707,14450,303531,120800,62694,51225,24465,7645,25230,685047,132269,425096,32111,695751,40521,4587,29817
227,06083,6083,119581,442135,34.65329488,-120.0188492, California,Santa Barbara County,430385,444829,109814,226891,93680,157161,195394,191521,8177,1721,23240,430,430,9898,215622,214762,26253,2072,21605,145470,64557,42608,58101,19797,4303,16354,348181,75747,196685,43038,377878,25392,3443,11190
228,06085,6085,494916,1607847,37.23104908,-121.6970462, California,Santa Clara County,1911462,1927470,653062,964506,293894,672495,487422,602110,43963,3822,693860,5734,5734,68812,967199,944262,64989,8915,20643,709152,252312,152916,143359,63078,21026,55432,1689732,386115,1032189,82192,1754722,99396,7645,74547
229,06087,6087,72011,174432,37.05580291,-122.0066524, California,Santa Cruz County,262577,273962,76715,137169,48693,106307,88225,150456,2363,262,12078,262,525,8402,129975,132601,12078,1265,31614,99254,41487,31509,34397,9452,2888,6827,226603,33347,110019,13391,229229,14179,2100,5514
230,06089,6089,44684,328337,40.76391419,-122.0396884, California,Shasta County,178899,179212,53689,84960,40250,78634,17889,142761,1967,3935,5724,178,178,6082,87839,91059,17532,820,52399,74243,36137,32738,29876,7155,3399,1788,162976,4114,73706,11628,143655,11986,1610,5903
231,06091,6091,372,1394,39.57713498,-120.5200701, California,Sierra County,3005,3040,435,1654,916,2365,321,2632,3,30,0,0,0,24,1607,1397,342,13,2996,1646,880,468,291,51,222,0,2776,9,1195,264,2247,249,123,18
232,06093,6093,8883,40538,41.59198861,-122.5407434, California,Siskiyou County,43157,43468,10779,20190,12188,24118,5437,32842,690,1381,690,129,43,1942,21535,21621,4833,205,28410,20629,10659,8027,8113,1122,431,388,38927,1424,16183,2546,34611,2934,776,1639
233,06095,6095,121986,272023,38.26827353,-121.9357113, California,Solano County,439199,441829,146304,213615,79280,157800,116387,166895,59291,1317,65879,3952,1756,24155,218721,220477,43041,1847,16338,167334,66758,54021,41723,23716,7466,7027,388251,50947,213011,20642,397475,21520,3513,14932
234,06097,6097,119035,325134,38.52746429,-122.8862506, California,Sonoma County,489836,499772,152527,249554,87755,207713,130786,309576,7347,2449,19593,1469,1959,16164,239039,250796,31349,2221,60494,206220,93068,58290,45064,16654,6367,6857,434974,54371,234631,29879,438403,23022,3918,14205
235,06099,6099,167518,1071603,37.55862499,-120.9970722, California,Stanislaus County,548405,543194,154056,278655,115694,181748,253911,229781,15355,2742,29613,3838,548,13161,271460,276944,29065,2410,43762,187006,70195,71841,82809,32355,10419,8774,432691,90486,240749,31259,465047,32355,6032,12613
236,06101,6101,28230,132688,39.03417539,-121.6945899, California,Sutter County,96791,96109,27304,45479,24008,34395,30005,44717,1742,677,15002,387,193,4258,48201,48589,8227,438,14325,34554,14518,13163,15002,6581,1935,1935,75690,16454,41329,7743,80046,5904,1742,2322
237,06103,6103,17833,98744,40.12570935,-122.2370171, California,Tehama County,64677,63912,17125,31222,16330,27558,16169,44174,452,905,970,0,0,1940,32144,32532,5820,301,33302,26517,12482,12223,14293,3492,1164,776,54652,4333,27099,4074,48960,4656,1358,2199
238,06105,6105,1977,9798,40.6491767,-123.114713, California,Trinity County,12132,12700,2606,5864,3662,8918,885,9960,121,667,206,24,48,218,6247,5884,1322,56,12132,6369,3263,2535,2305,606,315,109,11209,254,4137,1273,8225,740,400,109
239,06107,6107,168010,906129,36.22026558,-118.8020203, California,Tulare County,464344,461898,107618,233240,123486,148994,299966,132338,6036,2786,14859,464,928,6965,232172,232172,21359,2195,71880,143946,52006,56185,110513,33897,8822,9751,328755,121658,186201,37611,360795,26931,5107,13465
240,06109,6109,17824,92088,38.02644018,-119.9525093, California,Tuolumne County,51520,54045,11367,27149,13004,31553,6285,41319,927,721,721,103,51,1391,26790,24729,5924,248,25229,24935,13189,10097,6594,1751,618,257,46728,927,19835,2833,42246,2421,1184,2833
241,06111,6111,238508,938839,34.44465746,-119.0910613, California,Ventura County,840957,847263,260399,420687,159871,288896,359088,381794,14296,1681,60548,1681,840,21023,416273,424683,51298,3746,26237,320404,126984,91664,74845,33638,10091,16819,714813,125302,412909,74004,741724,36161,9250,30274
242,06113,6113,54769,212870,38.68278902,-121.9018288, California,Yolo County,211368,217352,69657,100043,41668,77947,66792,98708,5072,634,29380,845,422,9511,102513,108854,9511,1041,14647,65524,25575,20291,40371,9088,2959,2959,182833,27477,86026,10145,186637,16909,1690,4650
243,06115,6115,21842,67041,39.26255932,-121.3535644, California,Yuba County,78284,76360,23949,37474,16861,28586,22076,43212,2583,626,5166,313,156,4070,39924,38359,8532,333,20526,25677,9628,11742,12134,3522,1174,1330,64427,6732,35306,5636,65054,5088,861,3366
244,08001,8001,165749,842774,39.87432092,-104.3362578, Colorado,Adams County,515407,504108,186994,240947,87466,173200,206162,257703,16493,2577,20100,515,515,11338,260280,255126,37624,2088,18657,174207,52056,53602,55663,28862,7731,6700,431911,58240,289658,52056,438095,24224,5154,27316
245,08003,8003,5914,39790,37.57250606,-105.7885451, Colorado,Alamosa County,15487,16107,4535,6763,4189,7024,7247,7371,77,294,154,61,61,232,7743,7743,1006,75,5710,4924,2044,2710,3639,712,139,340,13458,1440,5993,1889,11677,1006,139,1362
246,08005,8005,196452,848466,39.64977461,-104.3353617, Colorado,Arapahoe County,654450,644560,271315,278329,104806,251212,125654,394633,68717,2617,38612,1308,1963,20942,323952,330497,52356,2959,10340,239528,83115,58900,53010,31413,11125,5890,606020,56937,376963,50392,587696,32068,3926,29450
247,08007,8007,3531,7566,37.19474156,-107.0476867, Colorado,Archuleta County,14003,13253,2961,7146,3896,9373,2576,10684,196,154,140,14,56,182,7029,6973,1610,63,8314,7127,3570,2058,1232,210,70,224,12924,224,5993,1498,11636,224,574,2100
248,08009,8009,1025,6765,37.31940883,-102.5603223, Colorado,Baca County,3572,3561,1112,1424,1036,2258,392,3029,35,57,0,3,0,57,1750,1821,285,16,3572,1643,928,721,678,110,103,0,3079,128,1832,242,2543,235,64,400
249,08011,8011,3000,27246,37.95474293,-103.0720195, Colorado,Bent County,3994,5787,829,1596,1569,2270,1282,2532,143,15,7,0,0,11,2576,1417,347,18,1516,1605,714,1042,1178,247,35,27,3386,267,930,351,2915,455,295,103
250,08013,8013,90872,254246,40.09313619,-105.3546767, Colorado,Boulder County,317737,322510,133711,139545,44481,136096,44165,246563,2541,953,14933,317,635,7943,159821,157915,16840,1540,28310,116291,43529,25736,37175,11120,5083,1588,301850,13980,149654,14615,289458,17157,1906,13027
251,08014,8014,18324,82999,39.95998787,-105.0566324, Colorado,Broomfield County,70393,67886,35730,26888,7775,28374,8728,54061,774,211,4575,0,281,1759,35055,35337,5631,305,408,26608,9362,5701,3942,2322,985,563,68210,2182,42728,3026,65395,2041,422,2463
252,08015,8015,5656,33318,38.74745778,-106.1926573, Colorado,Chaffee County,19034,19557,4608,9834,4592,11064,1903,16159,323,76,266,0,38,247,10202,8831,2017,80,7120,9364,4758,3254,1865,742,152,76,17796,494,7899,1903,15455,1123,666,1084
253,08017,8017,393,6406,38.82777431,-102.6032558, Colorado,Cheyenne County,1815,2026,545,791,479,989,310,1412,1,0,39,3,0,49,907,907,136,7,1815,715,299,221,185,14,1,0,1662,90,1041,212,1491,54,32,203
254,08019,8019,1926,6242,39.68864463,-105.6463118, Colorado,Clear Creek County,9616,9495,4515,3728,1373,5793,375,6173,2932,48,0,0,9,76,6154,3461,634,44,9616,3750,1452,2028,1923,423,28,48,7798,173,2394,711,5211,605,221,730
255,08021,8021,2296,29147,37.201606,-106.1917488, Colorado,Conejos County,8181,8128,1171,4427,2583,4433,4286,3648,40,73,16,24,16,73,4115,4065,744,37,8181,3174,1521,1660,1775,359,147,49,7199,490,3133,859,5505,605,73,253
256,08023,8023,952,8883,37.27732493,-105.4276548, Colorado,Costilla County,3887,3745,799,1779,1309,2845,2406,1298,15,15,50,0,0,104,2060,1826,516,19,3887,2017,1061,1072,1061,252,50,38,3148,618,1344,447,2650,252,50,303
257,08025,8025,3556,18894,38.32608609,-103.7844965, Colorado,Crowley County,3169,5754,843,1242,1084,1589,1010,1948,110,34,15,0,3,44,2012,1156,275,12,3169,1121,424,779,884,174,44,0,2728,123,858,196,2430,133,72,234
258,08027,8027,836,9848,38.10883162,-105.3683478, Colorado,Custer County,4918,4776,1061,2947,910,4408,452,4190,142,44,0,0,0,88,2513,2404,870,20,4918,2936,1770,791,624,78,9,127,4603,162,2001,796,4140,108,521,914
259,08029,8029,7173,81238,38.86246243,-107.8631342, Colorado,Delta County,30645,30565,8115,13813,8717,14827,4658,24914,183,214,275,0,0,398,15506,15138,3799,147,19358,14495,7753,5791,5608,704,306,61,27795,919,12564,2604,22585,1624,858,3248
260,08031,8031,224098,961328,39.76018276,-104.8725695, Colorado,Denver County,717814,705576,287810,298045,131959,321717,214626,389055,63885,3589,25841,717,1435,18663,359624,358189,37326,3523,0,247645,82548,68910,92598,30866,10049,8613,631676,69627,417049,66756,621626,70345,5742,31583
261,08033,8033,423,3550,37.75208676,-108.5211585, Colorado,Dolores County,2055,1857,754,909,392,1581,145,1845,0,34,0,0,0,30,1152,902,260,8,2055,1002,567,394,271,82,82,0,1927,6,1111,108,1329,26,147,608
262,08035,8035,100812,283349,39.33133796,-104.930001, Colorado,Douglas County,350839,336041,191517,128305,31017,124771,30522,288389,4560,1052,16489,350,1052,8420,175068,175770,28768,1400,36101,135774,39995,23506,10876,10876,5613,1403,344173,7718,204188,9823,336805,7367,3157,15436
263,08037,8037,18775,25623,39.62754308,-106.6933637, Colorado,Eagle County,55073,54681,19319,27012,8742,32461,16301,37009,605,110,385,55,0,660,29243,25829,2588,258,11003,20377,5892,2753,4405,1652,605,605,48629,6663,34585,7434,49400,991,936,10078
264,08039,8039,5821,22773,39.28656773,-104.1358721, Colorado,Elbert County,26694,25717,11862,11036,3796,9614,1868,23624,106,160,213,0,26,667,13507,13186,3176,107,26694,12305,4137,2375,1281,373,480,80,25813,160,14815,1414,24211,347,53,560
265,08041,8041,236429,1054129,38.83240149,-104.5251411, Colorado,El Paso County,714172,698974,289835,323401,100936,272379,122123,493492,42850,2142,19282,2856,2142,29281,360656,353515,120695,3086,63775,244246,89271,88557,72131,34994,10712,5713,672750,26424,374940,51420,647754,29995,7855,25710
266,08043,8043,18712,100512,38.47362326,-105.4399667, Colorado,Fremont County,40083,47321,13096,17365,9622,19805,5331,31705,1763,480,280,0,0,561,23368,16714,5491,174,10589,18077,8497,7575,5812,1523,440,200,36114,1563,12666,2765,33148,2284,641,2244
267,08045,8045,18007,57092,39.59921777,-107.902708, Colorado,Garfield County,59588,59055,18410,29909,11269,24001,16922,40579,297,238,536,0,119,834,30389,29198,3694,240,14360,21749,7567,4647,5124,2562,715,297,52497,5958,33309,9534,51484,1668,1489,2264
268,08047,8047,1171,3036,39.85646523,-105.5252597, Colorado,Gilpin County,6212,6018,2407,2475,1330,3799,521,5298,18,124,0,0,0,248,3143,3068,875,27,6212,3043,1111,596,304,105,74,43,6118,74,3764,354,5559,130,149,0
269,08049,8049,4052,14044,40.10603347,-106.1178042, Colorado,Grand County,15701,15303,5929,7450,2322,16780,1381,13706,157,0,219,15,47,172,8290,7410,1460,64,12969,6735,2622,785,1491,423,78,94,14853,235,9593,2056,14036,502,392,2857
270,08051,8051,3965,9602,38.66611652,-107.0320729, Colorado,Gunnison County,16565,16802,5625,8768,2172,11955,1557,14394,66,149,49,33,16,265,8978,7586,944,71,9708,5714,2153,1325,2219,496,165,99,16134,331,6924,1573,14080,579,612,3528
271,08053,8053,159,0,37.82247444,-107.3004345, Colorado,Hinsdale County,820,857,202,378,240,1461,46,738,0,14,4,0,0,17,368,451,77,3,820,460,200,208,80,9,19,13,768,0,291,82,604,22,91,223
272,08055,8055,1757,20921,37.68473101,-104.9612585, Colorado,Huerfano County,6882,6679,1317,3395,2170,5265,2360,4204,6,41,0,0,20,247,3385,3496,1066,29,3864,3785,2147,1582,1087,302,13,0,6358,151,2711,660,4438,688,406,0
273,08057,8057,195,14,40.6659387,-106.3408905, Colorado,Jackson County,1391,1261,285,764,342,1319,242,1143,0,0,0,0,0,5,714,676,197,5,1391,717,393,111,133,0,6,0,1215,51,819,84,1097,44,50,308
274,08059,8059,160246,900679,39.58635604,-105.2517692, Colorado,Jefferson County,577345,574798,257289,231883,88173,240956,88911,450906,6350,2309,16165,577,1154,11546,287517,289827,47342,2499,39836,232670,92375,57734,40991,19629,8660,2309,545591,17320,330818,31753,520765,22516,3464,19052
275,08061,8061,391,3493,38.43260896,-102.7392145, Colorado,Kiowa County,1406,1489,521,566,319,795,67,1289,5,0,0,0,0,43,681,724,88,6,1406,597,347,217,170,39,19,0,1345,16,853,88,1189,78,0,77
276,08063,8063,1875,18682,39.30497777,-102.6022199, Colorado,Kit Carson County,7097,7447,2298,3206,1593,3568,1355,5464,177,28,14,21,7,42,3803,3293,610,32,3455,2718,1298,1135,432,227,49,14,6351,560,3733,645,5741,454,49,567
277,08065,8065,2199,940,39.20278823,-106.3555697, Colorado,Lake County,8026,7751,2621,3965,1440,4894,2600,5120,8,104,64,0,0,120,4462,3563,618,35,2493,2945,850,1051,1171,280,72,0,6717,481,3964,1123,6493,313,32,674
278,08067,8067,15781,51556,37.28632032,-107.8429014, Colorado,La Plata County,54556,55617,18563,25760,10233,27825,6983,42826,218,3000,381,0,0,1036,27441,27114,3982,256,32706,22040,9001,4910,4964,1418,709,436,52100,654,27878,4582,42390,1200,1691,5782
279,08069,8069,108359,309036,40.66671597,-105.4625784, Colorado,Larimer County,349827,344786,152086,146365,51376,148229,40230,288957,3148,1749,7696,349,349,7346,174563,175263,26237,1561,40789,125937,52823,33933,40579,10144,4547,1749,335484,9445,174563,20639,312395,14692,2448,8745
280,08071,8071,4391,22809,37.3153406,-104.0376458, Colorado,Las Animas County,13779,14266,3555,6195,4029,8576,5718,7289,110,234,137,0,13,289,7233,6545,1460,64,5620,6324,3265,3320,2549,482,165,82,12111,537,5428,1171,9686,1474,248,1295
281,08073,8073,2382,5757,38.98749519,-103.5136649, Colorado,Lincoln County,4745,5585,1124,2549,1072,1988,1067,3183,384,37,18,9,0,37,3027,1717,403,22,4745,1803,825,754,702,204,37,0,4313,313,1247,384,3615,298,175,175
282,08075,8075,8640,73088,40.7249637,-103.110817, Colorado,Logan County,18709,22380,6819,8351,3539,9108,3143,14256,149,149,149,168,18,673,10102,8606,1927,78,5455,7146,3199,2656,2357,542,243,37,16763,654,9242,1721,15659,1309,112,1347
283,08077,8077,51670,327043,39.01787888,-108.469799, Colorado,Mesa County,151308,151218,51295,70750,29263,66599,21939,123164,907,1059,1361,151,151,2572,74594,76713,14979,668,19185,60069,28143,22696,21485,8019,3177,756,136933,3026,69904,14676,129670,6808,1815,3631
284,08079,8079,302,1377,37.66954283,-106.9281698, Colorado,Mineral County,769,824,216,407,146,1335,73,664,7,0,3,0,0,19,393,375,83,2,769,431,206,113,105,14,6,3,749,3,358,69,636,23,83,223
285,08081,8081,3725,31944,40.61810999,-108.2070876, Colorado,Moffat County,13248,13127,4106,6134,3008,6300,2066,10638,132,66,13,0,39,291,6862,6385,1046,58,3624,4848,1828,1497,2252,887,251,158,11750,702,6994,2066,10598,808,317,887
286,08083,8083,7640,43364,37.33859579,-108.5958857, Colorado,Montezuma County,26159,26031,6790,12200,7169,12331,3269,18939,52,3165,209,26,26,470,12948,13210,2825,108,17573,11823,5624,4525,3950,994,575,26,23543,497,11902,3165,18415,549,941,1595
287,08085,8085,11172,95198,38.40214114,-108.2639022, Colorado,Montrose County,42625,41686,11555,20093,10977,19048,8780,32437,127,341,341,127,42,468,20971,21653,4433,192,19176,19266,9846,6734,6436,1321,383,213,37936,3026,21440,4518,32991,2046,596,2855
288,08087,8087,6939,100930,40.2627981,-103.8093302, Colorado,Morgan County,28757,28517,8442,13390,6925,11783,10381,16736,1035,57,143,57,0,316,14464,14292,1725,117,9360,10410,4428,3220,3163,2099,718,546,22689,3307,15528,2588,23897,1495,345,1150
289,08089,8089,5304,77637,37.9014485,-103.7173385, Colorado,Otero County,17978,18282,4993,8198,4787,8999,7532,9546,107,71,161,17,197,359,8755,9222,1635,82,6186,7173,3613,3775,4260,898,305,71,15676,737,8018,1851,12890,1959,53,1348
290,08091,8091,1114,4133,38.14717457,-107.7675136, Colorado,Ouray County,4952,4796,1439,2703,810,3185,99,4739,14,14,34,4,0,39,2515,2436,599,23,4952,2679,1371,569,356,89,54,14,4843,9,2560,495,4253,99,153,401
291,08093,8093,3490,10986,39.120926,-105.7182065, Colorado,Park County,18759,17867,6058,9098,3603,14554,1144,16676,18,56,112,18,75,637,9998,8760,1932,74,18759,9510,3751,2419,1369,168,168,112,18327,18,9829,1669,15738,243,525,75
292,08095,8095,1114,12384,40.59414277,-102.3577703, Colorado,Phillips County,4265,4290,1056,2087,1122,1939,1019,3160,4,0,21,0,0,59,2213,2051,349,16,4265,1582,737,528,260,106,8,72,3774,358,2281,609,3369,119,187,132
293,08097,8097,8066,5041,39.21720112,-106.9310027, Colorado,Pitkin County,17746,17926,6481,7939,3326,14016,1792,15137,159,0,390,0,70,177,9245,8500,869,90,7843,7417,3158,1153,1188,1047,337,159,17195,745,9724,1756,16486,1029,230,5004
294,08099,8099,3220,29693,37.95544985,-102.3926052, Colorado,Prowers County,11970,12022,3226,6096,2648,5982,4548,7050,95,47,71,0,0,155,6104,5865,897,53,4535,4584,2082,2022,1915,634,83,11,9635,957,6607,1197,9240,718,167,945
295,08101,8101,61750,487949,38.17359144,-104.5127437, Colorado,Pueblo County,165957,165982,50071,76611,39275,71223,71361,86463,2655,1161,995,165,165,2987,81650,84306,17923,754,23482,65221,30204,32361,31365,9459,3485,995,148863,3651,72357,11119,126459,12446,2655,5144
296,08103,8103,2228,7366,39.97913541,-108.2179009, Colorado,Rio Blanco County,6107,6384,2151,2555,1401,3391,629,5166,30,67,6,0,0,207,3120,2986,665,25,6107,2253,928,738,647,152,134,30,5612,79,2845,512,4977,170,317,1789
297,08105,8105,3619,24967,37.5836865,-106.3847838, Colorado,Rio Grande County,11236,11305,3301,4935,3000,6806,4988,5853,56,146,11,11,11,157,5595,5640,764,52,7026,4730,2179,2269,1910,539,78,78,9775,685,4471,1213,7168,1101,359,269
298,08107,8107,7854,20591,40.48596505,-106.9905548, Colorado,Routt County,25441,25072,9125,12557,3759,16828,1780,22820,228,101,279,0,50,178,13229,12211,1577,117,11494,10227,3714,1577,2773,712,381,178,24626,610,14272,1857,23380,788,559,6843
299,08109,8109,1517,7335,38.08054629,-106.282466, Colorado,Saguache County,6806,6592,1760,2809,2237,4151,2470,3988,34,108,0,0,0,204,3389,3416,626,30,6806,3334,1524,1061,1197,272,74,40,5655,551,3008,905,4519,387,224,483
300,08111,8111,316,0,37.76248981,-107.6763289, Colorado,San Juan County,728,589,275,315,138,751,61,646,0,7,0,0,0,12,361,366,88,2,728,372,180,93,38,7,7,0,682,29,379,64,559,42,65,220
301,08113,8113,2710,3674,38.00450883,-108.4020725, Colorado,San Miguel County,8170,8049,2883,4015,1272,6886,874,7009,0,49,138,0,16,81,4305,3864,400,42,8170,3415,1102,449,923,285,171,187,7908,400,4665,710,6903,269,392,1470
302,08115,8115,581,5234,40.87595412,-102.3519227, Colorado,Sedgwick County,2248,2322,568,995,685,1191,301,1899,17,2,20,0,0,4,1074,1173,238,11,2248,991,519,409,427,139,0,20,1955,58,1099,202,1661,119,15,220
303,08117,8117,12064,9297,39.63803232,-106.1150762, Colorado,Summit County,30960,30649,11635,13813,5512,31220,4427,25418,309,123,185,61,0,433,16873,14086,1517,125,6043,12105,3962,1764,2476,712,123,897,28761,2693,19350,5139,25851,619,309,2167
304,08119,8119,5907,31490,38.88133511,-105.1614893, Colorado,Teller County,25309,24524,9289,11500,4520,13256,1670,22449,202,101,202,0,0,658,12882,12426,4125,103,15843,12654,5340,3492,2075,455,303,177,24600,101,11945,2176,22600,329,506,1391
305,08121,8121,1256,17300,39.97015535,-103.202587, Colorado,Washington County,4748,4868,1966,1986,796,2373,474,4126,47,4,28,0,0,61,2487,2260,446,20,4748,1975,954,527,560,208,52,4,4363,80,2696,223,3883,242,80,170
306,08123,8123,105756,454481,40.55499405,-104.3929621, Colorado,Weld County,319543,305345,127484,138848,53211,109170,93945,209620,3514,958,4793,319,319,5751,161369,158173,22687,1328,65378,109922,38025,32912,31954,14698,5112,2236,281517,21409,171275,25243,274806,11184,1597,14379
307,08125,8125,2331,16449,40.00346839,-102.4258673, Colorado,Yuma County,9928,10003,3306,3897,2725,4556,2323,7416,49,59,0,0,0,79,4944,4983,714,42,6444,3752,1806,1151,1389,585,138,119,8796,1072,5222,893,7505,436,178,456
308,09001,9001,263765,2161517,41.26809896,-73.3881171, Connecticut,Fairfield County,932097,943926,371539,377569,182989,372565,183623,575103,98802,932,49401,0,5592,17709,453931,478165,40080,5053,42690,378431,144475,89481,82956,46604,10253,7456,838887,111851,467912,78296,824905,71771,19574,58722
309,09003,9003,236386,2409614,41.80283011,-72.73103891, Connecticut,Hartford County,878007,893561,349936,354137,173934,379602,158041,536462,113262,1756,46534,0,3512,18438,426711,451295,48290,4140,47500,354714,147505,103604,94824,51802,8780,5268,787572,77264,461831,35998,736647,90434,12292,55314
310,09005,9005,41655,317581,41.7937534,-73.2451475, Connecticut,Litchfield County,180097,182002,78446,72971,28680,88252,11346,159205,2701,360,3421,0,180,2701,89148,90948,13867,822,74650,85185,37099,21251,12426,5583,1981,720,167490,5943,97612,7023,156144,9184,3421,10445
311,09007,9007,38739,360623,41.45949668,-72.53714864, Connecticut,Middlesex County,159850,163053,70168,63312,26370,76327,9910,134114,7832,159,4795,0,159,2717,78006,81843,11509,713,39227,73051,31490,17583,11029,6234,2078,159,150578,5434,88237,5115,138110,8791,2877,11509
312,09009,9009,257121,2096034,41.4080325,-72.93620426, Connecticut,New Haven County,836346,857513,307852,341789,186705,367053,151378,526061,104543,836,33453,0,1672,17563,403118,433227,46835,3923,30442,337047,142178,97016,97852,54362,8363,5018,753547,66071,418173,41817,695839,97016,13381,59380
313,09011,9011,73660,442657,41.48896435,-72.10430976, Connecticut,New London County,260663,267390,109369,105334,45960,123426,27630,197321,13554,1303,10687,0,521,9644,130592,130070,27369,1153,67277,107914,46137,33625,24502,14075,3649,1042,240591,13815,133720,10426,225212,16161,5734,12511
314,09013,9013,27817,187233,41.85853803,-72.3308481, Connecticut,Tolland County,137010,151063,66629,52300,18081,59686,7535,115910,3973,0,6713,0,274,2466,68505,68505,9453,600,52351,51652,20962,13975,10001,5343,1096,548,130159,3562,64805,3562,120842,6028,2055,5617
315,09015,9015,31313,189090,41.82972709,-71.98182316, Connecticut,Windham County,113717,116566,43247,49439,21031,49718,13418,94043,2046,113,1592,0,0,2501,56289,57427,9665,479,56585,46851,18308,15465,12963,6595,1478,113,100525,5458,55039,4662,95067,7505,2046,3866
316,10001,10001,64330,402133,39.08646628,-75.56884914, Delaware,Kent County,177475,176699,66077,72642,38756,71753,12600,109324,44546,887,3549,0,532,6034,85542,91932,22716,759,47865,66908,29460,27153,23959,12068,2662,709,155113,7099,90512,12600,151208,11713,4081,7986
317,10003,10003,186739,921627,39.57992638,-75.64054974, Delaware,New Castle County,545835,556165,219513,224631,101691,223259,54037,313309,134275,1091,30020,0,1091,12008,264184,281650,37662,2502,25108,209600,82966,61679,62225,28929,7095,2183,499984,25654,288200,26745,472693,36570,7095,43120
318,10005,10005,78150,562655,38.66143781,-75.39031349, Delaware,Sussex County,232793,224384,63060,106908,62825,138183,21416,174594,27469,698,2793,0,931,4888,112671,120121,23512,1048,96143,115465,62854,32591,26305,8846,2095,1163,205090,10941,121052,15597,188795,9078,5819,14200
319,11001,11001,177215,1051874,38.90417773,-77.01655992, District of Columbia,District of Columbia,678072,692683,236898,289483,151691,315176,74587,248174,307844,1356,26444,0,2712,16273,321406,356665,31191,3572,0,230544,82046,79334,109847,42718,7458,12205,616367,38650,383788,25088,560087,243427,10849,42718
320,12001,12001,89071,356327,29.67866525,-82.35928158, Florida,Alachua County,257036,265443,91230,112090,53716,117415,25446,156791,50893,771,15679,257,771,6425,124148,132887,17992,1313,54465,81223,35213,28016,55005,11309,2313,1285,238015,10538,108726,21591,219508,17735,8996,44467
321,12003,12003,10669,76515,30.33060121,-82.28467476, Florida,Baker County,27126,28211,9859,11462,5805,9994,705,21999,3607,135,162,0,27,488,14132,12993,2604,114,16137,10226,3716,4313,3255,1247,434,0,23246,298,12179,2712,21049,515,0,189
322,12005,12005,55804,456252,30.26548745,-85.62122584, Florida,Bay County,172800,182161,58610,76686,37504,103059,11232,131500,18662,518,3974,172,864,5875,85881,86918,26092,764,20736,68774,29376,33696,25228,10368,1728,864,156729,4492,85536,22636,147398,10195,4147,35251
323,12007,12007,9161,78046,29.95079741,-82.16611613, Florida,Bradford County,24248,27317,6538,10462,7248,11051,1018,17822,4898,96,145,0,24,266,13336,10911,2449,108,18314,9626,4316,4704,5383,1430,363,121,19301,193,9408,2740,17216,2133,266,872
324,12009,12009,174061,1156373,28.29409504,-80.73091022, Florida,Brevard County,598624,585507,199387,273202,126035,278173,61658,445376,55672,1795,13768,598,1795,17958,292727,305896,82011,2696,30350,283149,140078,94582,70637,23944,5387,1795,551931,19754,286142,61059,522000,28733,10775,64052
325,12011,12011,769484,3482025,26.15184651,-80.48725556, Florida,Broward County,1945390,1926205,566662,936338,442390,823499,579726,706176,536927,3890,68088,0,9726,40853,947404,997985,95324,9501,389,785937,317098,210102,254846,120614,23344,23344,1731397,315153,1021329,276245,1643854,138122,36962,138122
326,12013,12013,4894,54223,30.40666734,-85.19394153, Florida,Calhoun County,12645,14362,3726,5147,3772,6017,733,9749,1643,139,12,0,25,354,6967,5677,1163,57,8536,5260,2427,2996,1858,328,126,50,9724,429,4678,2086,8573,885,164,1580
327,12015,12015,48341,482107,26.90131002,-81.92949121, Florida,Charlotte County,187410,181067,43307,89362,54741,104458,13680,157236,10120,562,2436,187,562,2811,91643,95766,26799,862,16642,110759,74214,42167,20802,4497,1686,937,169793,7496,80024,19490,158736,9370,4685,23801
328,12017,12017,38779,544419,28.84804315,-82.47614748, Florida,Citrus County,148865,145169,35699,65617,47549,79641,8485,131001,4168,297,2530,0,148,2084,72199,76665,23074,672,51388,84108,54037,32303,23371,4465,1637,297,131596,3275,59248,15184,122218,8038,3572,18459
329,12019,12019,66713,456036,29.98319144,-81.85609986, Florida,Clay County,218707,211405,85738,98074,34895,80710,21651,158999,22526,218,6123,0,874,8092,107822,110884,36086,912,32740,86826,33680,29525,22308,12028,3499,874,200773,7654,110884,22526,197929,6779,3280,6998
330,12021,12021,105789,607795,26.11091986,-81.34687065, Florida,Collier County,383327,371453,89372,192890,101065,214473,106948,240729,25682,766,4983,0,383,3833,188980,194346,34116,2015,32544,194730,121131,44082,42932,13033,3449,3833,333877,57115,192046,59032,326594,18399,12649,33732
331,12023,12023,25544,217432,30.22509788,-82.62160164, Florida,Columbia County,67063,69968,17523,31932,17608,29033,4224,48486,11937,134,737,0,134,1475,34738,32324,8718,307,41619,27093,12272,13211,10595,2749,1005,335,57741,1274,28099,8382,52711,3084,938,5029
332,12027,12027,11230,94330,27.18677893,-81.80941373, Florida,DeSoto County,35211,36903,7031,16237,11943,15189,11126,19295,4401,35,70,35,0,246,19894,15316,2605,155,16281,14401,7640,5140,9436,2359,422,422,25880,5422,14506,6760,20175,2429,352,2394
333,12029,12029,4905,35423,29.60631086,-83.15724673, Florida,Dixie County,15127,16589,3630,7154,4343,9453,620,12721,1331,0,30,0,0,423,8471,6655,2163,71,11650,7034,3433,3524,3206,665,196,453,11859,226,4901,2450,8834,1482,393,226
334,12031,12031,316883,1830980,30.33225875,-81.66976468, Florida,Duval County,948277,936186,340257,415347,192673,407960,91982,501638,276896,1896,43620,948,3793,28448,459914,488362,110000,4460,27594,343276,129913,126120,137500,68275,12327,5689,851552,53103,513966,111896,796552,73965,21810,70172
335,12033,12033,97483,773042,30.67652764,-87.37284571, Florida,Escambia County,309608,313491,101974,137406,70228,141355,17647,199077,67184,1238,8978,309,619,14241,153255,156352,43654,1377,25697,115174,51394,47679,43345,14241,2476,619,280195,8359,148921,31889,256974,18576,6501,35295
336,12035,12035,28830,176242,29.45933576,-81.31508595, Florida,Flagler County,114779,109801,31559,53829,29391,51757,11937,85739,11363,344,2984,114,229,2066,54749,60029,13658,500,11845,58881,34433,16987,14232,4132,1721,229,105826,8264,53601,15380,88150,3787,2410,2869
337,12037,12037,3557,26232,29.83791238,-84.82731662, Florida,Franklin County,10429,11811,2748,4445,3236,8725,573,8040,1439,0,31,41,146,156,5944,4484,1053,52,7095,4839,2367,2346,1960,385,93,41,8416,177,3660,1908,8040,521,281,3264
338,12039,12039,17590,118116,30.57796289,-84.61915825, Florida,Gadsden County,43265,45945,9966,18105,15194,20293,4499,13974,24141,43,86,0,129,389,20507,22757,4023,192,28286,17652,7484,8393,9864,4283,389,86,34525,1946,18430,6100,26132,4369,302,2249
339,12041,12041,5603,51759,29.72856978,-82.79880657, Florida,Gilchrist County,17577,17953,3669,7890,6018,7550,1019,15151,1001,0,35,0,0,351,9210,8366,1845,74,14750,7399,3568,3726,3023,984,193,0,15010,369,7153,3093,11618,1089,351,703
340,12043,12043,2288,20863,26.95635849,-81.18996211, Florida,Glades County,12345,13516,1850,5837,4658,7056,2629,7369,1604,469,98,0,49,123,6863,5481,1617,53,8720,5913,3320,2246,2148,456,172,49,9197,1543,4308,2975,7431,604,382,827
341,12045,12045,5011,46731,29.93543004,-85.2427099, Florida,Gulf County,13362,15576,3147,6192,4023,9567,587,10195,2218,53,66,0,13,227,7816,5545,1563,55,10300,5999,2765,2699,1723,561,146,66,11424,240,4997,1389,10021,574,708,3153
342,12047,12047,4546,30070,30.49673973,-82.94998918, Florida,Hamilton County,11800,14326,2653,4714,4433,5827,1109,6454,3964,70,11,0,11,153,6926,4873,979,55,7490,4826,2006,2796,3528,837,224,153,8614,519,3103,1616,7658,1191,342,1321
343,12049,12049,10289,62843,27.49293939,-81.80956574, Florida,Hardee County,25691,27131,5088,12688,7915,9763,11201,12100,1901,25,231,25,0,205,13924,11766,1541,120,12282,9094,4059,2928,6191,1490,359,590,19833,3982,10173,3005,15286,1361,1104,1258
344,12051,12051,13709,96529,26.55386945,-81.16469006, Florida,Hendry County,41832,40732,8276,19211,14345,14804,22463,13386,4601,585,376,0,41,376,22170,19661,2175,195,15850,14222,5479,5019,10583,3513,543,543,27734,10165,18740,10708,27818,3430,627,1254
345,12053,12053,53474,598530,28.55364461,-82.42700204, Florida,Hernando County,192899,186313,57049,87969,47881,86898,26041,149496,9452,578,2314,0,1157,3665,92591,100307,24112,828,37383,94520,53047,37808,27198,6751,2893,771,169558,6172,86804,23533,162613,8680,4629,11188
346,12055,12055,30549,397461,27.34254618,-81.34071957, Florida,Highlands County,105776,103437,22222,48962,34592,55791,21260,70975,9942,211,1480,0,105,1798,51512,54263,13010,513,22287,56590,37233,20943,19674,3702,634,528,90650,7192,42204,11741,78591,5500,4019,9202
347,12057,12057,476248,2154752,27.9276559,-82.32013172, Florida,Hillsborough County,1458048,1422278,506252,649541,302255,580511,418459,711527,227455,2916,58321,1458,4374,34993,712985,745062,122476,6979,51177,542393,202668,169133,212875,90398,20412,18954,1293288,166217,769849,183714,1275792,94773,26244,93315
348,12059,12059,6343,52112,30.86747479,-85.81319222, Florida,Holmes County,18092,19432,4271,7570,6251,8711,506,15685,1248,253,108,54,0,253,9823,8268,1935,81,14251,7725,3582,4233,4124,940,289,90,14238,253,6893,3202,13098,1103,54,597
349,12061,12061,42378,370840,27.69308961,-80.60556721, Florida,Indian River County,159270,153989,42851,72416,44003,80098,19749,119930,14015,159,2070,0,159,3026,76449,82820,18953,835,7915,85209,51444,25961,18156,3822,796,637,142387,7963,74538,18793,130760,7963,4618,41410
350,12063,12063,18137,170688,30.7954597,-85.21500423, Florida,Jackson County,40622,47945,10779,17660,12183,21102,1990,26526,10764,284,121,81,81,812,22301,18320,4143,186,30612,16939,7840,8205,7880,2315,365,203,32700,771,15680,4590,28963,3331,649,2559
351,12065,12065,5002,32728,30.43669112,-83.89442308, Florida,Jefferson County,13114,14161,3458,5229,4427,6752,537,7815,4511,65,39,0,0,144,6884,6229,1337,60,13114,6294,3003,2347,2163,511,104,78,10753,222,5520,957,9612,642,118,760
352,12067,12067,3133,33066,29.98484137,-83.18166636, Florida,Lafayette County,7219,8637,1662,3579,1978,3193,1133,4778,1147,14,0,21,0,122,4280,2938,693,30,7219,2692,996,1133,924,129,0,223,5435,483,2526,1198,5609,360,209,1523
353,12069,12069,108629,821229,28.76202069,-81.7125123, Florida,Lake County,364949,345867,113091,166511,85347,157039,56932,254369,37224,1459,7298,0,1824,6204,177000,187948,43063,1544,70252,171161,96711,60581,43793,14597,3284,1459,326629,17152,180649,37589,312396,17882,8758,27736
354,12071,12071,241239,1248853,26.58410348,-81.88399313, Florida,Lee County,765912,737468,211447,367948,186517,394047,163905,514692,62038,1531,12254,0,2297,9190,375296,390615,72761,3674,44576,371467,215221,106461,100334,29104,7659,4595,677066,71229,378360,101866,652557,36763,21445,60507
355,12073,12073,113336,375069,30.45955727,-84.27491114, Florida,Leon County,281240,289770,102109,123486,55645,130005,17999,158900,86059,562,9843,0,843,7312,133307,147932,17718,1376,34620,87184,36279,31498,57654,17155,3374,1687,262959,6749,126276,22780,247209,17436,6187,18280
356,12075,12075,12685,79146,29.31829741,-82.74007147, Florida,Levy County,41380,40403,9565,19689,12126,20601,3475,33021,3600,41,372,0,0,910,20193,21186,5958,187,38090,19407,9972,8648,8565,1696,662,206,35131,1324,17752,6289,27807,2110,620,3310
357,12077,12077,2976,18108,30.23766008,-84.8829258, Florida,Liberty County,6358,8345,2039,2527,1792,3621,298,4844,991,76,12,0,25,101,3789,2568,502,27,6358,2587,972,1494,1068,247,305,0,5175,114,1888,966,4272,171,95,464
358,12079,12079,7008,53740,30.44396917,-83.47398594, Florida,Madison County,16705,18460,3371,8059,5275,8639,918,9087,6381,50,150,0,33,66,8920,7784,1302,80,13365,7266,3357,3057,4643,952,83,350,13531,350,6481,2121,9889,1687,501,1687
359,12081,12081,122725,837773,27.47196942,-82.31831044, Florida,Manatee County,401548,384213,113602,187395,100551,191000,65853,285902,34131,803,8030,0,401,6023,194349,207198,41359,1890,23249,193947,108417,56618,47382,16061,3613,2409,360188,26502,199569,48988,334891,18069,9637,53807
360,12083,12083,104873,1170815,29.21227113,-82.05803627, Florida,Marion County,358082,353526,99066,165513,93503,168985,47266,251731,44760,1074,5013,0,716,7161,171879,186202,45118,1627,111112,174385,102411,64096,57651,16113,3222,1432,313679,13249,156123,40821,288972,18620,7877,32943
361,12085,12085,40389,375166,27.0772071,-80.43109784, Florida,Martin County,158362,159065,47628,72092,38642,80153,21537,123997,8393,316,2217,158,316,1583,78389,79972,17419,835,13429,82664,48458,24704,15677,4909,950,633,144109,8868,77597,16469,135557,8234,2692,12510
362,12086,12086,1538402,6871386,25.6112362,-80.55170587, Florida,Miami-Dade County,2691583,2699428,627776,1302472,761335,1024194,1843734,355288,425270,2691,40373,0,8074,16149,1308109,1383473,59214,14079,10766,1073941,430653,271849,460260,185719,32298,59214,2190948,933979,1442688,452185,2069827,277233,51140,156111
363,12087,12087,22773,66294,25.20904673,-81.07812416, Florida,Monroe County,73755,75798,19339,35641,18775,53518,17922,48899,4941,73,958,73,73,811,38426,35328,7596,372,6424,35181,16299,7596,8039,2360,958,1475,67412,7596,42187,13423,61659,5826,2065,15341
364,12089,12089,27517,160348,30.61037141,-81.80297522, Florida,Nassau County,88426,83098,28284,39463,20679,38975,3802,77019,5305,442,884,0,0,972,43859,44566,11672,391,42577,40056,19011,14501,9284,3537,1326,353,80732,1591,44743,9284,76665,3183,972,3537
365,12091,12091,61768,401213,30.69143028,-86.59267105, Florida,Okaloosa County,208789,203794,78301,91426,39062,97058,19417,153668,19834,417,6263,208,417,8769,105856,102932,45933,903,25263,77043,32779,32362,22758,8977,2714,835,192921,7098,109196,24428,174756,10439,3131,18582
366,12093,12093,12433,102584,27.3863362,-80.88944347, Florida,Okeechobee County,39467,41144,9221,19721,10525,18679,10064,24943,3038,197,394,118,0,749,21312,18154,3867,179,14425,16220,7814,6433,8288,1973,631,434,30468,3907,17010,6354,24272,1499,1262,2644
367,12095,12095,473188,1584120,28.51367621,-81.31799498, Florida,Orange County,1371554,1349746,476247,619954,275353,535981,433411,548621,271567,1371,69949,1371,12343,32917,672061,699492,82293,6649,27979,481415,159100,150870,204361,91894,17830,15087,1213825,190646,709093,182416,1197366,78178,49375,137155
368,12097,12097,143580,631325,28.06312234,-81.14882926, Florida,Osceola County,373936,351955,111118,173496,89322,149427,202299,118537,34776,747,9722,373,1869,5609,184350,189585,23931,1592,29241,134243,48611,53472,55342,23557,4113,2617,324202,74413,181358,54220,308123,19444,10844,25053
369,12099,12099,477750,3169488,26.64676272,-80.46536002, Florida,Palm Beach County,1484379,1465027,423142,686682,374555,686410,332500,810470,270156,1484,40078,0,5937,25234,719923,764455,100937,7746,15437,665001,350313,182578,181094,65312,16328,11875,1313675,197422,762970,192969,1261722,90547,28203,121719
370,12101,12101,158519,1021893,28.30810945,-82.40227529, Florida,Pasco County,550758,524602,180116,246719,123923,243451,83715,410865,29740,1652,13768,550,1101,9913,268219,282538,61134,2487,52156,245087,123920,88672,69946,25334,6609,2753,492928,23682,273175,63337,454375,30291,14870,39654
371,12103,12103,274850,1977027,27.93130349,-82.72239666, Florida,Pinellas County,968898,964666,314014,423630,231254,509132,93983,716984,95920,1937,31973,968,2906,23253,465071,503826,100765,4700,2712,466039,235442,149210,118205,38755,10657,5813,884603,50382,506733,105609,803216,74605,22284,76542
372,12105,12105,258115,1678686,27.95027105,-81.69732947, Florida,Polk County,714460,686218,205576,335651,173233,295456,160753,420816,105025,2143,12145,0,2143,10716,350085,364374,65015,3180,96523,287212,144320,110026,112884,37151,10002,10002,607291,57156,350799,90736,501550,37866,18575,45010
373,12107,12107,21101,217016,29.60779729,-81.74230285, Florida,Putnam County,73686,73252,19738,32560,21388,37415,7368,52685,11789,294,442,0,0,1105,36474,37211,8989,337,41382,33232,16726,12452,17389,3463,884,294,60275,3242,30579,11789,53201,5379,2947,2800
374,12109,12109,78244,301386,29.90096506,-81.43589967, Florida,St. Johns County,262951,244674,103022,113729,46200,107258,18406,217197,13673,788,6836,262,525,5259,128057,134893,28398,1227,62503,114909,51801,29450,21561,9992,2892,525,249277,6047,134105,21036,229556,6310,4733,21561
375,12111,12111,95316,732596,27.37763908,-80.47106649, Florida,St. Lucie County,326689,312947,104770,147184,74735,141628,62070,187192,63050,980,6533,326,653,5880,159424,167264,32015,1442,10976,147336,77751,49330,43449,16334,3266,2286,281932,26135,160730,44756,276705,14374,7513,32995
376,12113,12113,58917,343414,30.6934145,-87.02458128, Florida,Santa Rosa County,178869,174755,65398,79619,33852,71649,10016,147388,10911,715,3398,357,357,5902,91402,87466,32733,750,37544,71368,28261,28261,17350,8764,2325,536,163307,3040,87109,16634,159193,5187,3219,16098
377,12115,12115,121241,962936,27.18546175,-82.33174248, Florida,Sarasota County,431171,419496,110651,213556,106964,240766,39667,357871,18540,431,7329,0,862,6467,205668,225502,50015,2073,18626,241886,155221,66400,38805,12072,3018,1724,401420,22852,217310,47428,366926,21127,9054,48291
378,12117,12117,131248,620903,28.7158582,-81.24060348, Florida,Seminole County,470885,461402,178250,206237,86398,190156,100769,283943,51797,941,21189,0,2354,10359,227437,243447,35787,2151,14879,184586,71574,49913,49913,24015,5650,3296,444044,30607,250510,44734,424267,18835,9417,40025
379,12119,12119,29963,325832,28.70181754,-82.0794267, Florida,Sumter County,124500,125044,14238,68477,41785,70800,7096,105825,8466,373,996,124,124,1494,62250,62250,20916,542,43525,83913,70591,24900,10208,1245,249,249,114664,2863,37599,6972,107070,4108,2614,30253
380,12121,12121,15862,178020,30.19746066,-82.9909967, Florida,Suwannee County,42303,44046,11366,19464,11473,19401,3934,31938,5372,42,42,0,0,930,21743,20559,5160,194,35183,18317,8672,8714,6303,1903,1438,211,34815,1311,18740,5880,33038,3130,1522,2242
381,12123,12123,8054,56249,30.04848048,-83.60445406, Florida,Taylor County,19252,21870,5373,9719,4160,11112,1232,13880,3831,57,57,0,96,96,10781,8470,1540,79,13337,8085,3792,4042,4081,1078,57,192,15170,596,6045,1848,13226,1405,654,3908
382,12125,12125,5097,74331,30.04412971,-82.37497443, Florida,Union County,10427,15303,2969,4722,2736,4608,583,7246,2262,83,62,0,0,177,6798,3628,1324,50,7033,4097,1564,1605,2168,1094,177,62,7976,72,2846,1126,7017,604,41,291
383,12127,12127,150053,1068922,29.05858895,-81.18263252, Florida,Volusia County,543420,536487,158207,254023,131190,260720,75535,389632,56515,1630,9238,0,1630,9238,264645,278774,61949,2496,54015,253233,131507,95641,77709,21736,5977,1630,491795,19019,256494,62493,435822,32605,11411,34778
384,12129,12129,12102,67802,30.16548905,-84.39895211, Florida,Wakulla County,30512,32321,11701,12229,6582,13479,1128,24287,4576,61,152,0,0,274,16568,13943,3356,127,18819,12387,4454,4485,3722,1098,793,213,26759,335,14950,2715,24226,1098,1006,549
385,12131,12131,20481,113594,30.64204028,-86.16935664, Florida,Walton County,72312,68262,19829,36113,16370,51996,4483,60959,3326,289,723,0,72,2458,36589,35722,8894,349,45650,31817,14100,12509,9545,2892,1156,433,64429,1880,35143,9328,59223,3977,1735,32251
386,12133,12133,7685,62123,30.61359259,-85.66002461, Florida,Washington County,22923,24764,6336,10654,5933,10922,848,17742,3438,297,160,91,22,320,12401,10521,2200,98,19381,9513,3942,4240,5524,1467,504,160,18636,458,8114,2934,17192,1214,275,1787
387,13001,13001,5275,81634,31.74847232,-82.28909114, Georgia,Appling County,18086,18440,4344,7367,6375,8567,1790,12497,3490,90,72,0,18,126,9133,8952,1175,82,12920,7288,3038,2803,4069,1121,54,162,13546,795,8229,2785,10923,1464,72,813
388,13003,13003,2456,28243,31.29633502,-82.87545866, Georgia,Atkinson County,8153,8239,2080,3322,2751,3512,2030,4606,1418,81,0,0,8,8,4133,4019,432,38,8153,2967,1108,1320,2470,725,105,8,5478,1076,3709,1842,5054,603,89,448
389,13005,13005,4098,46876,31.55456473,-82.45936528, Georgia,Bacon County,10955,11201,2642,5436,2877,4797,909,8051,1665,0,21,21,0,284,5356,5598,766,50,7590,4020,1687,2158,2607,898,208,208,8994,383,4918,2256,7274,657,109,613
390,13007,13007,652,10279,31.32669878,-84.44218806, Georgia,Baker County,3038,3132,569,1103,1366,1924,167,1537,1203,0,94,21,0,15,1485,1552,230,14,3038,1400,720,650,695,127,88,82,2448,54,1351,352,1537,297,173,30
391,13009,13009,11163,152624,33.06882326,-83.24701748, Georgia,Baldwin County,39694,45111,11230,17019,11445,20588,912,20799,16711,79,714,0,39,476,20085,19608,2699,184,13948,14091,6112,6152,9367,2778,357,158,34057,516,15679,4723,29691,2977,595,2381
392,13011,13011,4571,51809,34.35607081,-83.49644388, Georgia,Banks County,19234,18708,6226,8135,4873,7739,1327,16887,500,96,211,0,0,211,9655,9578,1615,80,18047,7905,3173,3539,2558,480,211,192,14598,596,9039,2942,12694,961,134,1154
393,13013,13013,26014,158892,33.99148694,-83.71436292, Georgia,Barrow County,83145,78991,31982,35142,16021,28423,9062,59282,9727,166,3076,0,166,1662,40741,42403,5903,326,24993,29682,10226,11557,10476,4489,1247,249,70257,4572,43401,11972,70008,2910,1829,6152
394,13015,13015,35316,276655,34.23732119,-84.83887523, Georgia,Bartow County,107085,104919,38641,44833,23611,41072,9209,82990,11029,214,963,0,321,2355,52899,54185,8352,469,37726,40799,14670,14991,14991,5782,1499,856,89523,3319,55470,15955,85453,4497,2677,2891
395,13017,13017,4982,79609,31.76095874,-83.22145359, Georgia,Ben Hill County,16607,17033,4075,6480,6052,8001,1013,9266,6078,0,116,0,0,132,7938,8668,1079,80,5646,6626,2773,2524,4915,1527,315,0,13866,431,7107,2956,9216,2241,581,415
396,13019,13019,5860,52048,31.27590016,-83.2252992, Georgia,Berrien County,19305,19152,5211,8313,5781,8798,984,15791,2046,19,212,0,0,250,9459,9845,1216,84,14698,7644,3397,3590,4671,868,212,96,15250,540,9150,4382,12142,1602,135,752
397,13021,13021,45308,496659,32.80904227,-83.70489165, Georgia,Bibb County,147863,153200,45142,63648,39073,70130,4879,56631,80289,295,2957,0,295,2513,69347,78515,11976,768,21307,53822,22475,23214,36817,14934,1626,591,127162,2957,65651,19074,111192,17447,3696,11976
