,FIPS,Cases,Deaths,Lat,Long,County
0,1001,19732,230,32.53952745,-86.64408227,Autauga
1,1003,69641,724,30.72774991,-87.72207058,Baldwin
2,1005,7451,103,31.868263,-85.3871286,Barbour
3,1007,8067,109,32.99642064,-87.12511459999996,Bibb
4,1009,18616,261,33.98210918,-86.56790593,Blount
5,1011,3020,54,32.10030533,-85.71265535,Bullock
6,1013,6518,132,31.75300095,-86.68057478,Butler
7,1015,41228,675,33.77483727,-85.82630386,Calhoun
8,1017,10812,170,32.91360079,-85.39072749,Chambers
9,1019,6732,89,34.17805983,-85.60638968,Cherokee
10,1021,12956,217,32.85044126,-86.7173256,Chilton
11,1023,2255,39,32.02227341,-88.26564429999998,Choctaw
12,1025,8529,107,31.68099859,-87.83548597,Clarke
13,1027,5134,92,33.26984193,-85.85836077,Clay
14,1029,4393,71,33.67679204,-85.52005899,Cleburne
15,1031,17094,245,31.39932826,-85.98901039,Coffee
16,1033,21197,276,34.69847452,-87.80168544,Colbert
17,1035,3589,76,31.43401703,-86.99320044,Conecuh
18,1037,3755,64,32.93690146,-86.24847739,Coosa
19,1039,11765,258,31.2477854,-86.45050893,Covington
20,1041,4730,110,31.72941803,-86.31593104,Crenshaw
21,1043,31438,395,34.13020303,-86.86888037,Cullman
22,1045,16436,245,31.43037123,-85.61095742,Dale
23,1047,10935,258,32.32688101,-87.10866709999998,Dallas
24,1049,22466,345,34.45946862,-85.80782906,DeKalb
25,1051,29745,361,32.59785413,-86.14415284,Elmore
26,1053,12347,179,31.1256789,-87.15918694,Escambia
27,1055,34137,690,34.04567266,-86.04051873,Etowah
28,1057,5871,99,33.72076938,-87.73886638,Fayette
29,1059,11996,152,34.44235334,-87.84289505,Franklin
30,1061,7907,171,31.09389027,-85.83572839,Geneva
31,1063,2292,54,32.85504247,-87.95684022,Greene
32,1065,5705,110,32.76039258,-87.63284988,Hale
33,1067,5837,79,31.51148016,-85.24267944,Henry
34,1069,32514,529,31.15197924,-85.29939599,Houston
35,1071,18311,254,34.78144169,-85.99750489,Jackson
36,1073,237792,2526,33.55554728,-86.89506300000002,Jefferson
37,1075,4716,73,33.77995024,-88.09668032,Lamar
38,1077,30323,420,34.90171875,-87.65624729,Lauderdale
39,1079,9368,181,34.52041498,-87.31069453,Lawrence
40,1081,47500,369,32.60154883,-85.35132246,Lee
41,1083,32058,316,34.81185586,-86.98310072,Limestone
42,1085,3358,80,32.1597283,-86.65158371,Lowndes
43,1087,5267,90,32.38759944,-85.69267724,Macon
44,1089,115627,1058,34.76327133,-86.55069633,Madison
45,1091,6078,116,32.24767634,-87.78796182,Marengo
46,1093,10094,159,34.13697363,-87.88704173,Marion
47,1095,32869,408,34.36975964,-86.30486727,Marshall
48,1097,134503,1781,30.78472347,-88.20842409,Mobile
49,1099,6720,87,31.56729412,-87.36995001,Monroe
50,1101,73524,1006,32.2206831,-86.20969272,Montgomery
51,1103,46347,550,34.45500589,-86.85475946,Morgan
52,1105,2659,49,32.64048341,-87.29770589,Perry
53,1107,6317,122,33.28094866,-88.08818103,Pickens
54,1109,9241,142,31.80396383,-85.9408295,Pike
55,1111,6500,79,33.29526734,-85.45708831,Randolph
56,1113,12995,100,32.28725256,-85.18415324,Russell
57,1115,33164,439,33.71902176,-86.31029372,St. Clair
58,1117,77846,480,33.26879845,-86.66232561,Shelby
59,1119,3164,55,32.59117397,-88.19916205,Sumter
60,1121,28482,394,33.37823223,-86.16886178,Talladega
61,1123,14566,252,32.86698258,-85.79833053,Tallapoosa
62,1125,70636,850,33.28726072,-87.52556818,Tuscaloosa
63,1127,24045,478,33.80270512,-87.30027177,Walker
64,1129,4388,61,31.4092794,-88.20689944,Washington
65,1131,3645,48,31.98773215,-87.30891118,Wilcox
66,1133,9405,140,34.15030532,-87.37325922,Winston
67,2013,1331,5,55.32222414,-161.9722021,Aleutians East
68,2016,2000,3,52.3233,-174.1596,Aleutians West
69,2020,124062,612,61.14998174,-149.14269860000005,Anchorage
70,2050,12883,47,60.90980451,-159.8561831,Bethel
71,2060,0,0,58.74513976,-156.701064,Bristol Bay
72,2063,2403,13,61.16666,-149.9,Chugach
73,2066,1315,11,60.3886,-162.8905196,Copper River
74,2068,1802,2,63.67264044,-150.0076108,Denali
75,2070,2265,13,59.79603738,-158.23819419999995,Dillingham
76,2090,33565,172,64.80726247,-146.5692662,Fairbanks North Star
77,2100,806,1,59.09893571,-135.4679843,Haines
78,2105,0,0,58.29307365,-135.64244240000002,Hoonah-Angoon
79,2110,11938,29,58.45031811,-134.200436,Juneau
80,2122,22616,130,60.24429722,-151.53888840000005,Kenai Peninsula
81,2130,5139,27,55.57445008,-130.975561,Ketchikan Gateway
82,2150,5870,13,57.65529415,-153.7493579,Kodiak Island
83,2158,4912,15,62.15429159999999,-163.39678830000005,Kusilvak
84,2164,1240,1,58.62403337,-156.21405890000003,Bristol Bay plus Lake and Peninsula
85,2170,40705,277,62.31305045,-149.5741743,Matanuska-Susitna
86,2180,7597,7,64.90320724,-164.0353804,Nome
87,2185,5508,17,69.31479216,-153.4836093,North Slope
88,2188,5752,22,67.04919196,-159.7503946,Northwest Arctic
89,2195,926,8,57.13978948,-132.9540995,Petersburg
90,2198,1841,10,55.76261984,-133.0511621,Prince of Wales-Hyder
91,2220,3508,10,57.24124555,-135.3206587,Sitka
92,2230,675,1,59.56149996,-135.3337748,Skagway
93,2240,2468,21,63.87692095,-143.2127643,Southeast Fairbanks
94,2261,0,0,61.47502768,-144.7126799,Valdez-Cordova
95,2275,796,2,56.3202004,-132.05837309999998,Wrangell
96,2282,975,5,59.8909808,-140.36014509999998,Yakutat
97,2290,1742,13,65.50815459,-151.3907387,Yukon-Koyukuk
98,4001,35848,639,35.39465006,-109.4892383,Apache
99,4003,38971,643,31.87934684,-109.7516088,Cochise
100,4005,52627,526,35.83883429,-111.7707178,Coconino
101,4007,21354,415,33.80190085,-110.8132779,Gila
102,4009,14078,188,32.93166885,-109.8882178,Graham
103,4011,2711,40,33.21498827,-109.2405279,Greenlee
104,4012,5937,158,33.72854224,-113.9810029,La Paz
105,4013,1526029,18812,33.34835867,-112.4918154,Maricopa
106,4015,67042,1665,35.70471703,-113.7577902,Mohave
107,4017,48052,970,35.3997715,-110.3218983,Navajo
108,4019,315154,4292,32.0971334,-111.7890033,Pima
109,4021,156407,1813,32.90525627,-111.3449483,Pinal
110,4023,19585,245,31.52508998,-110.8479088,Santa Cruz
111,4025,59992,1383,34.59933926,-112.5538588,Yavapai
112,4027,70844,1253,32.76895712,-113.90666740000002,Yuma
113,5001,7001,95,34.29145151,-91.37277296,Arkansas
114,5003,6221,82,33.19153461,-91.7698471,Ashley
115,5005,10684,283,36.28784385,-92.33782872,Baxter
116,5007,77170,995,36.33644656,-94.25680817,Benton
117,5009,11238,203,36.3084504,-93.09374925,Boone
118,5011,3591,57,33.46755808,-92.15980837,Bradley
119,5013,1191,14,33.55598792,-92.49974403,Calhoun
120,5015,7260,122,36.34038560000001,-93.54270261,Carroll
121,5017,3124,65,33.26458973,-91.29539209,Chicot
122,5019,6397,92,34.04613432,-93.17484713,Clark
123,5021,5125,101,36.36826212,-90.4148172,Clay
124,5023,8021,145,35.53864922,-92.02640019,Cleburne
125,5025,2667,41,33.89723187,-92.18537045,Cleveland
126,5027,6756,105,33.21230701,-93.22642793,Columbia
127,5029,6570,83,35.26205537,-92.70506566,Conway
128,5031,47116,385,35.83018283,-90.63235729,Craighead
129,5033,18614,294,35.58928601,-94.2446814,Crawford
130,5035,16665,245,35.21247318,-90.30839406,Crittenden
131,5037,5732,104,35.29631396,-90.77185818,Cross
132,5039,2069,41,33.97042763,-92.65167437,Dallas
133,5041,3642,44,33.83011025,-91.25500948,Desha
134,5043,5617,84,33.59035001,-91.71777921,Drew
135,5045,42851,357,35.14719007,-92.33717519,Faulkner
136,5047,4475,82,35.51202821,-93.89299569,Franklin
137,5049,3100,99,36.38177105,-91.81729127,Fulton
138,5051,26982,580,34.57692074,-93.14921604,Garland
139,5053,5231,65,34.29017991,-92.42320562,Grant
140,5055,19688,198,36.11735460000001,-90.55832668,Greene
141,5057,5622,82,33.73325583,-93.66935133,Hempstead
142,5059,13027,159,34.31709259,-92.95396325,Hot Spring
143,5061,4649,63,34.09007427,-93.9934871,Howard
144,5063,12748,231,35.74242707,-91.57001641,Independence
145,5065,4701,78,36.09604046,-91.90847954,Izard
146,5067,7252,75,35.59802983,-91.21494602,Jackson
147,5069,22306,315,34.26767081,-91.92619839,Jefferson
148,5071,8183,102,35.56759135,-93.46036368,Johnson
149,5073,1502,31,33.24116713,-93.60677071,Lafayette
150,5075,6501,89,36.04188196,-91.10867198,Lawrence
151,5077,3331,67,34.78498904,-90.78383866,Lee
152,5079,5494,70,33.95317155,-91.74002806,Lincoln
153,5081,3881,108,33.70375665,-94.23468591,Little River
154,5083,6059,91,35.21413234,-93.71951016,Logan
155,5085,23914,270,34.75392199,-91.88742357,Lonoke
156,5087,4842,68,36.01038185,-93.72524943,Madison
157,5089,4083,94,36.26844485,-92.68451899,Marion
158,5091,11599,210,33.31403423,-93.89285258,Miller
159,5093,16349,235,35.76271485,-90.05194370000002,Mississippi
160,5095,2309,38,34.6815935,-91.20540287,Monroe
161,5097,1769,67,34.53704874,-93.65824478,Montgomery
162,5099,2764,46,33.66340119,-93.30632432,Nevada
163,5101,2041,54,35.91947491,-93.21612969,Newton
164,5103,6753,126,33.58839816,-92.87795984,Ouachita
165,5105,3005,42,34.9459153,-92.94372564,Perry
166,5107,5875,106,34.43268455,-90.84800154,Phillips
167,5109,2957,49,34.16250414,-93.65789349,Pike
168,5111,10060,139,35.57433534,-90.66268713,Poinsett
169,5113,4639,160,34.48254879,-94.22728802,Polk
170,5115,20939,229,35.44871474,-93.03212219,Pope
171,5117,2413,46,34.83624419,-91.55162157,Prairie
172,5119,127532,1315,34.77054088,-92.31355101,Pulaski
173,5121,6418,106,36.3415714,-91.02455531,Randolph
174,5123,8551,108,35.02201976,-90.74828138,St. Francis
175,5125,36987,394,34.64916145,-92.67583224,Saline
176,5127,2845,49,34.85588887,-94.0632176,Scott
177,5129,2547,53,35.9109364,-92.69936482,Searcy
178,5131,39253,583,35.19605503,-94.27162713,Sebastian
179,5133,7110,84,33.99780401,-94.2424869,Sevier
180,5135,5699,122,36.16258158,-91.47819342,Sharp
181,5137,3690,80,35.86251946,-92.15684085,Stone
182,5139,11257,204,33.16887091,-92.59746952,Union
183,5141,4332,66,35.58095779,-92.51295036,Van Buren
184,5143,80618,702,35.976844,-94.21800746,Washington
185,5145,27037,340,35.25688493,-91.74908296,White
186,5147,2268,33,35.18902527,-91.2439489,Woodruff
187,5149,7590,118,35.00292371,-93.41171338,Yell
188,6001,399660,2174,37.64629437,-121.8929271,Alameda
189,6003,143,0,38.59678594,-119.8223594,Alpine
190,6005,11506,99,38.44583082,-120.65696,Amador
191,6007,51756,484,39.66727762,-121.6005252,Butte
192,6009,9612,140,38.20537103,-120.552913,Calaveras
193,6011,5310,22,39.17881957,-122.2331726,Colusa
194,6013,293639,1542,37.91923498,-121.9289527,Contra Costa
195,6015,8392,59,41.74228275,-123.8974063,Del Norte
196,6017,39031,243,38.77965956,-120.5233166,El Dorado
197,6019,328084,2983,36.75733899,-119.6466953,Fresno
198,6021,7788,58,39.59875897,-122.3938452,Glenn
199,6023,29183,169,40.69923009,-123.876044,Humboldt
200,6025,88524,974,33.0393082,-115.3669042,Imperial
201,6027,6048,63,36.51112084,-117.41119779999998,Inyo
202,6029,308788,2615,35.34329425,-118.7277796,Kern
203,6031,67224,473,36.07409056,-119.8159973,Kings
204,6033,14898,155,39.10124298,-122.7536244,Lake
205,6035,11310,66,40.67311306,-120.59350990000002,Lassen
206,6037,3691301,35250,34.30828379,-118.2282411,Los Angeles
207,6039,54990,388,37.21513971,-119.76655890000002,Madera
208,6041,54594,317,38.07122463,-122.7210631,Marin
209,6043,4533,42,37.57978556,-119.9073334,Mariposa
210,6045,21667,153,39.4381191,-123.3911313,Mendocino
211,6047,88999,903,37.18922369,-120.7209035,Merced
212,6049,1323,11,41.58965602,-120.7244817,Modoc
213,6051,3623,8,37.93899289,-118.8872409,Mono
214,6053,120991,796,36.21862405,-121.2413397,Monterey
215,6055,35842,165,38.50735751,-122.332839,Napa
216,6057,22422,132,39.30394768,-120.7627281,Nevada
217,6059,783685,7908,33.70147516,-117.76459979999998,Orange
218,6061,90984,682,39.06167234,-120.7240569,Placer
219,6063,4284,14,40.00355989,-120.8395236,Plumas
220,6065,774340,6827,33.74314981,-115.9933578,Riverside
221,6067,406986,3705,38.45106826,-121.3425374,Sacramento
222,6069,18723,115,36.60308176,-121.069975,San Benito
223,6071,743194,8171,34.84060306,-116.1774685,San Bernardino
224,6073,1062026,5759,33.03484597,-116.7365326,San Diego
225,6075,208522,1164,37.75215114,-122.4385672,San Francisco
226,6077,226119,2415,37.93433732,-121.2730061,San Joaquin
227,6079,74408,559,35.38822029,-120.4039028,San Luis Obispo
228,6081,193626,912,37.4228808,-122.32755459999998,San Mateo
229,6083,119581,760,34.65329488,-120.0188492,Santa Barbara
230,6085,494916,2688,37.23104908,-121.6970462,Santa Clara
231,6087,72011,283,37.05580291,-122.0066524,Santa Cruz
232,6089,44684,690,40.76391419,-122.0396884,Shasta
233,6091,372,5,39.57713498,-120.52007009999998,Sierra
234,6093,8883,95,41.59198861,-122.5407434,Siskiyou
235,6095,121986,482,38.26827353,-121.9357113,Solano
236,6097,119035,557,38.52746429,-122.8862506,Sonoma
237,6099,167518,1842,37.55862499,-120.9970722,Stanislaus
238,6101,28230,238,39.03417539,-121.6945899,Sutter
239,6103,17833,222,40.12570935,-122.2370171,Tehama
240,6105,1977,24,40.64917670000001,-123.114713,Trinity
241,6107,168010,1567,36.22026558,-118.8020203,Tulare
242,6109,17824,211,38.02644018,-119.9525093,Tuolumne
243,6111,238508,1666,34.44465746,-119.0910613,Ventura
244,6113,54769,439,38.68278902,-121.9018288,Yolo
245,6115,21842,134,39.26255932,-121.3535644,Yuba
246,8001,165749,1463,39.87432092,-104.3362578,Adams
247,8003,5914,68,37.57250606,-105.7885451,Alamosa
248,8005,196452,1361,39.64977461,-104.3353617,Arapahoe
249,8007,3531,24,37.19474156,-107.0476867,Archuleta
250,8009,1025,17,37.31940883,-102.5603223,Baca
251,8011,3000,50,37.95474293,-103.0720195,Bent
252,8013,90872,445,40.09313619,-105.3546767,Boulder
253,8014,18324,132,39.95998787,-105.0566324,Broomfield
254,8015,5656,56,38.74745778,-106.19265729999998,Chaffee
255,8017,393,12,38.82777431,-102.6032558,Cheyenne
256,8019,1926,13,39.68864463,-105.6463118,Clear Creek
257,8021,2296,58,37.201606,-106.19174879999998,Conejos
258,8023,952,19,37.27732493,-105.4276548,Costilla
259,8025,3556,33,38.32608609,-103.7844965,Crowley
260,8027,836,23,38.10883162,-105.3683478,Custer
261,8029,7173,160,38.86246243,-107.8631342,Delta
262,8031,224098,1517,39.76018276,-104.8725695,Denver
263,8033,423,9,37.75208676,-108.5211585,Dolores
264,8035,100812,496,39.33133796,-104.930001,Douglas
265,8037,18775,39,39.62754308,-106.6933637,Eagle
266,8039,5821,46,39.28656773,-104.1358721,Elbert
267,8041,236429,1891,38.83240149,-104.5251411,El Paso
268,8043,18712,209,38.47362326,-105.4399667,Fremont
269,8045,18007,103,39.59921777,-107.902708,Garfield
270,8047,1171,7,39.85646523,-105.5252597,Gilpin
271,8049,4052,30,40.10603347,-106.1178042,Grand
272,8051,3965,16,38.66611652,-107.0320729,Gunnison
273,8053,159,0,37.82247444,-107.3004345,Hinsdale
274,8055,1757,40,37.68473101,-104.9612585,Huerfano
275,8057,195,1,40.66593870000001,-106.3408905,Jackson
276,8059,160246,1541,39.58635604,-105.2517692,Jefferson
277,8061,391,6,38.43260896,-102.7392145,Kiowa
278,8063,1875,34,39.30497777,-102.6022199,Kit Carson
279,8065,2199,2,39.20278823,-106.3555697,Lake
280,8067,15781,99,37.28632032,-107.8429014,La Plata
281,8069,108359,597,40.66671597,-105.4625784,Larimer
282,8071,4391,51,37.3153406,-104.0376458,Las Animas
283,8073,2382,11,38.98749519,-103.5136649,Lincoln
284,8075,8640,119,40.7249637,-103.110817,Logan
285,8077,51670,635,39.01787888,-108.469799,Mesa
286,8079,302,4,37.66954283,-106.9281698,Mineral
287,8081,3725,58,40.61810999,-108.2070876,Moffat
288,8083,7640,90,37.33859579,-108.5958857,Montezuma
289,8085,11172,183,38.40214114,-108.26390220000002,Montrose
290,8087,6939,147,40.26279810000001,-103.8093302,Morgan
291,8089,5304,137,37.9014485,-103.7173385,Otero
292,8091,1114,6,38.14717457,-107.7675136,Ouray
293,8093,3490,25,39.120926,-105.7182065,Park
294,8095,1114,20,40.59414277,-102.3577703,Phillips
295,8097,8066,9,39.21720112,-106.9310027,Pitkin
296,8099,3220,52,37.95544985,-102.3926052,Prowers
297,8101,61750,876,38.17359144,-104.5127437,Pueblo
298,8103,2228,15,39.97913541,-108.2179009,Rio Blanco
299,8105,3619,47,37.5836865,-106.3847838,Rio Grande
300,8107,7854,34,40.48596505,-106.9905548,Routt
301,8109,1517,12,38.08054629,-106.282466,Saguache
302,8111,316,0,37.76248981,-107.67632890000002,San Juan
303,8113,2710,8,38.00450883,-108.4020725,San Miguel
304,8115,581,13,40.87595412,-102.3519227,Sedgwick
305,8117,12064,15,39.63803232,-106.1150762,Summit
306,8119,5907,67,38.88133511,-105.1614893,Teller
307,8121,1256,34,39.97015535,-103.202587,Washington
308,8123,105756,777,40.55499405,-104.3929621,Weld
309,8125,2331,27,40.00346839,-102.4258673,Yuma
310,9001,263765,2996,41.26809896,-73.3881171,Fairfield
311,9003,236386,3475,41.80283011,-72.73103891,Hartford
312,9005,41655,529,41.7937534,-73.2451475,Litchfield
313,9007,38739,547,41.45949668,-72.53714864,Middlesex
314,9009,257121,3145,41.4080325,-72.93620426,New Haven
315,9011,73660,771,41.48896435,-72.10430976,New London
316,9013,27817,315,41.85853803,-72.3308481,Tolland
317,9015,31313,353,41.82972709,-71.98182316,Windham
318,10001,64330,722,39.08646628,-75.56884914,Kent
319,10003,186739,1598,39.57992638,-75.64054974,New Castle
320,10005,78150,989,38.66143781,-75.39031349,Sussex
321,11001,177215,1426,38.90417773,-77.01655992,District of Columbia
322,12001,89071,813,29.67866525,-82.35928158,Alachua
323,12003,10669,152,30.33060121,-82.28467476,Baker
324,12005,55804,887,30.26548745,-85.62122584,Bay
325,12007,9161,173,29.95079741,-82.16611613,Bradford
326,12009,174061,2462,28.29409504,-80.73091022,Brevard
327,12011,769484,6640,26.15184651,-80.48725556,Broward
328,12013,4894,109,30.40666734,-85.19394153,Calhoun
329,12015,48341,991,26.90131002,-81.92949121,Charlotte
330,12017,38779,1123,28.84804315,-82.47614748,Citrus
331,12019,66713,965,29.98319144,-81.85609986,Clay
332,12021,105789,1148,26.11091986,-81.34687065,Collier
333,12023,25544,462,30.22509788,-82.62160164,Columbia
334,12027,11230,173,27.18677893,-81.80941373,DeSoto
335,12029,4905,86,29.60631086,-83.15724673,Dixie
336,12031,316883,3811,30.33225875,-81.66976468,Duval
337,12033,97483,1462,30.67652764,-87.37284571,Escambia
338,12035,28830,425,29.45933576,-81.31508595,Flagler
339,12037,3557,57,29.83791238,-84.82731662,Franklin
340,12039,17590,241,30.57796289,-84.61915825,Gadsden
341,12041,5603,109,29.72856978,-82.79880657,Gilchrist
342,12043,2288,38,26.95635849,-81.18996211,Glades
343,12045,5011,88,29.93543004,-85.24270990000002,Gulf
344,12047,4546,61,30.49673973,-82.94998918,Hamilton
345,12049,10289,138,27.49293939,-81.80956574,Hardee
346,12051,13709,173,26.55386945,-81.16469006,Hendry
347,12053,53474,1263,28.55364461,-82.42700204,Hernando
348,12055,30549,796,27.34254618,-81.34071957,Highlands
349,12057,476248,4344,27.9276559,-82.32013172,Hillsborough
350,12059,6343,105,30.86747479,-85.81319222,Holmes
351,12061,42378,757,27.69308961,-80.60556721,Indian River
352,12063,18137,296,30.7954597,-85.21500423,Jackson
353,12065,5002,69,30.43669112,-83.89442308,Jefferson
354,12067,3133,64,29.98484137,-83.18166636,Lafayette
355,12069,108629,1771,28.76202069,-81.7125123,Lake
356,12071,241239,2508,26.58410348,-81.88399313,Lee
357,12073,113336,778,30.45955727,-84.27491114,Leon
358,12075,12685,187,29.31829741,-82.74007147,Levy
359,12077,2976,31,30.23766008,-84.8829258,Liberty
360,12079,7008,105,30.44396917,-83.47398594,Madison
361,12081,122725,1702,27.47196942,-82.31831044,Manatee
362,12083,104873,2458,29.21227113,-82.05803627,Marion
363,12085,40389,752,27.0772071,-80.43109784,Martin
364,12086,1538402,12126,25.6112362,-80.55170587,Miami-Dade
365,12087,22773,135,25.20904673,-81.07812416,Monroe
366,12089,27517,348,30.61037141,-81.80297522,Nassau
367,12091,61768,756,30.69143028,-86.59267105,Okaloosa
368,12093,12433,199,27.386336199999995,-80.88944347,Okeechobee
369,12095,473188,3246,28.51367621,-81.31799498,Orange
370,12097,143580,1256,28.06312234,-81.14882926,Osceola
371,12099,477750,5904,26.64676272,-80.46536002,Palm Beach
372,12101,158519,2229,28.30810945,-82.40227529,Pasco
373,12103,274850,3975,27.93130349,-82.72239666,Pinellas
374,12105,258115,3390,27.95027105,-81.69732947,Polk
375,12107,21101,465,29.60779729,-81.74230285,Putnam
376,12109,78244,691,29.90096506,-81.43589967,St. Johns
377,12111,95316,1384,27.37763908,-80.47106649,St. Lucie
378,12113,58917,692,30.69341450000001,-87.02458128,Santa Rosa
379,12115,121241,2018,27.18546175,-82.33174248,Sarasota
380,12117,131248,1253,28.7158582,-81.24060348,Seminole
381,12119,29963,690,28.70181754,-82.0794267,Sumter
382,12121,15862,356,30.19746066,-82.99099670000003,Suwannee
383,12123,8054,115,30.04848048,-83.60445406,Taylor
384,12125,5097,125,30.04412971,-82.37497443,Union
385,12127,150053,2299,29.05858895,-81.18263252,Volusia
386,12129,12102,142,30.16548905,-84.39895211,Wakulla
387,12131,20481,232,30.64204028,-86.16935664,Walton
388,12133,7685,122,30.61359259,-85.66002461,Washington
389,13001,5275,135,31.74847232,-82.28909114,Appling
390,13003,2456,57,31.29633502,-82.87545866,Atkinson
391,13005,4098,82,31.55456473,-82.45936528,Bacon
392,13007,652,15,31.32669878,-84.44218806,Baker
393,13009,11163,262,33.06882326,-83.24701748,Baldwin
394,13011,4571,101,34.35607081,-83.49644388,Banks
395,13013,26014,291,33.99148694,-83.71436292,Barrow
396,13015,35316,485,34.23732119,-84.83887523,Bartow
397,13017,4982,125,31.76095874,-83.22145359,Ben Hill
398,13019,5860,96,31.27590016,-83.22529920000002,Berrien
399,13021,45308,832,32.80904227,-83.70489165,Bibb
400,13023,3932,110,32.43829035,-83.33035166,Bleckley
401,13025,4699,115,31.19576557,-81.97743999,Brantley
402,13027,4052,99,30.83922642,-83.58303423,Brooks
403,13029,11178,111,32.00979311,-81.44002948,Bryan
404,13031,17901,283,32.39577406,-81.74811421,Bulloch
405,13033,6282,124,33.05917989,-81.99928721,Burke
406,13035,7666,180,33.283094500000004,-83.95435040000002,Butts
407,13037,1576,25,31.53169785,-84.62725131,Calhoun
408,13039,13637,139,30.92951916,-81.66601818,Camden
409,13043,2580,110,32.40209349,-82.07702563,Candler
410,13045,28307,500,33.58138199,-85.07976677,Carroll
411,13047,16974,204,34.89872298,-85.13757014,Catoosa
412,13049,3482,65,30.78371028,-82.13951596,Charlton
413,13051,79504,1032,32.00043026,-81.12489526,Chatham
414,13053,7891,24,32.34341231,-84.78809239,Chattahoochee
415,13055,7569,152,34.47197698,-85.34535662,Chattooga
416,13057,75670,710,34.24393976,-84.47431861,Cherokee
417,13059,35241,263,33.95436462,-83.37124007,Clarke
418,13061,623,7,31.62221166,-84.97713865,Clay
419,13063,77748,1088,33.54187245,-84.35594188,Clayton
420,13065,2459,46,30.91395822,-82.70432472,Clinch
421,13067,216176,2089,33.94243204,-84.5761255,Cobb
422,13069,11834,305,31.54892966,-82.85492059999999,Coffee
423,13071,13022,277,31.18810588,-83.7677946,Colquitt
424,13073,43186,437,33.54534185,-82.263524,Columbia
425,13075,5689,83,31.16068491,-83.42947229,Cook
426,13077,41135,527,33.35334302,-84.76129976,Coweta
427,13079,2218,64,32.71391813,-83.98061238,Crawford
428,13081,5575,145,31.92289565,-83.76811843,Crisp
429,13083,3926,44,34.854916700000004,-85.50490424,Dade
430,13085,8319,108,34.44244079,-84.16964071,Dawson
431,13087,8525,143,30.87967778,-84.57619536,Decatur
432,13089,191797,1972,33.76944049,-84.22396017,DeKalb
433,13091,5933,174,32.17265114,-83.16948926,Dodge
434,13093,2839,76,32.15630737,-83.79746561,Dooly
435,13095,24315,569,31.53328528,-84.21722377,Dougherty
436,13097,43383,461,33.70291126,-84.77026156,Douglas
437,13099,3122,65,31.32155345,-84.90255207,Early
438,13101,1058,12,30.71101099,-82.89687287,Echols
439,13103,16356,217,32.36616021,-81.34280942,Effingham
440,13105,5324,120,34.11302332,-82.83936148,Elbert
441,13107,6773,168,32.59221302,-82.30239915,Emanuel
442,13109,2852,70,32.15328841,-81.8870105,Evans
443,13111,5754,180,34.86430205,-84.316964,Fannin
444,13113,29534,384,33.41357794,-84.49089434,Fayette
445,13115,32031,570,34.26268279,-85.21577392,Floyd
446,13117,66702,465,34.22604035,-84.12315129999998,Forsyth
447,13119,6163,115,34.37525597,-83.23159927,Franklin
448,13121,275593,2658,33.79216944,-84.46319413,Fulton
449,13123,8227,199,34.69316688,-84.45802506,Gilmer
450,13125,724,31,33.22879932,-82.61297636,Glascock
451,13127,27198,441,31.23279254,-81.53811412,Glynn
452,13129,19725,303,34.50487351,-84.87296253,Gordon
453,13131,6838,114,30.87454847,-84.23418364,Grady
454,13133,4746,91,33.5769205,-83.17139104,Greene
455,13135,256836,2116,33.96044201,-84.02137802,Gwinnett
456,13137,11478,288,34.63331566,-83.53094677,Habersham
457,13139,63453,929,34.32207823,-83.81896936,Hall
458,13141,1943,91,33.2721566,-82.99766919,Hancock
459,13143,6275,186,33.79602175,-85.21005667,Haralson
460,13145,7100,124,32.73709786,-84.90538572,Harris
461,13147,5598,111,34.34626973,-82.96567682,Hart
462,13149,2575,61,33.29686567,-85.12886832,Heard
463,13151,71799,757,33.4533428,-84.14814659999998,Henry
464,13153,49415,542,32.45802497,-83.66879087,Houston
465,13155,2212,57,31.60213036,-83.27501387,Irwin
466,13157,24920,314,34.13794553,-83.56814788,Jackson
467,13159,3764,82,33.31535543,-83.68844964,Jasper
468,13161,4367,77,31.80405727,-82.63724870000001,Jeff Davis
469,13163,4232,121,33.05867328,-82.41609057,Jefferson
470,13165,1771,69,32.79248718,-81.96040187,Jenkins
471,13167,2642,86,32.70211082,-82.66166794,Johnson
472,13169,6031,127,33.02512137,-83.56019163,Jones
473,13171,5829,131,33.07841647,-84.14263877,Lamar
474,13173,2693,32,31.03828570000001,-83.06472457,Lanier
475,13175,16409,328,32.46325233,-82.92221316,Laurens
476,13177,8674,113,31.779330600000005,-84.14324253,Lee
477,13179,15728,166,31.82588896,-81.49251135,Liberty
478,13181,1837,40,33.79201475,-82.45024131,Lincoln
479,13183,3477,36,31.75218791,-81.74952375,Long
480,13185,36882,434,30.83568832,-83.27056716,Lowndes
481,13187,8919,139,34.57286511,-84.00425681,Lumpkin
482,13189,6159,114,33.47851918,-82.48252774,McDuffie
483,13191,2846,39,31.49683595,-81.40163426,McIntosh
484,13193,2730,54,32.35207048,-84.04234127,Macon
485,13195,8008,123,34.12920917,-83.21218732,Madison
486,13197,1867,57,32.3483402,-84.52733571,Marion
487,13199,5554,158,33.04163534,-84.68859732,Meriwether
488,13201,2032,32,31.16568912,-84.73151117,Miller
489,13205,6254,127,31.22483255,-84.19381821,Mitchell
490,13207,7059,185,33.014289,-83.92097166,Monroe
491,13209,2325,56,32.17201038,-82.53527476,Montgomery
492,13211,5530,75,33.59232073,-83.49129491,Morgan
493,13213,13498,205,34.78897608,-84.74993177,Murray
494,13215,45739,925,32.50931999,-84.87142262,Muscogee
495,13217,30659,497,33.55514538,-83.84547140000002,Newton
496,13219,10535,116,33.83749973,-83.43679568,Oconee
497,13221,3752,65,33.878629600000004,-83.08278123,Oglethorpe
498,13223,46570,476,33.91969522,-84.86848792,Paulding
499,13225,7937,151,32.56934316,-83.82937,Peach
500,13227,10086,194,34.46589159,-84.46406611,Pickens
501,13229,6442,143,31.35928155,-82.21598442,Pierce
502,13231,6474,108,33.09310242,-84.38790389,Pike
503,13233,13727,214,34.00267074,-85.18677781,Polk
504,13235,2691,84,32.23334561,-83.47549959999998,Pulaski
505,13237,5260,114,33.32056115,-83.37552891,Putnam
506,13239,549,5,31.86728114,-85.01773177,Quitman
507,13241,4102,106,34.88389445,-83.40304637,Rabun
508,13243,1824,50,31.76622818,-84.75732369,Randolph
509,13245,60486,971,33.35777107,-82.07026432,Richmond
510,13247,23684,350,33.65145002,-84.02202167,Rockdale
511,13249,1411,11,32.2654021,-84.31258912,Schley
512,13251,3172,76,32.74976524,-81.60779441,Screven
513,13253,2501,39,30.93464824,-84.86823924,Seminole
514,13255,19263,450,33.26310031,-84.28013991,Spalding
515,13257,7259,183,34.55151201,-83.29405315,Stephens
516,13259,3281,36,32.07996777,-84.83208037,Stewart
517,13261,8706,188,32.03650571,-84.19821492,Sumter
518,13263,1374,35,32.69642758,-84.53351366,Talbot
519,13265,338,4,33.56543317,-82.88136816,Taliaferro
520,13267,5740,144,32.04785085,-82.05539188,Tattnall
521,13269,2433,54,32.55792548,-84.25077141,Taylor
522,13271,3506,90,31.92829517,-82.93491155,Telfair
523,13273,2543,71,31.77527543,-84.44069698,Terrell
524,13275,13727,235,30.86392347,-83.91847289,Thomas
525,13277,13789,238,31.45743864,-83.5236119,Tift
526,13279,8013,216,32.12059861,-82.32957247,Toombs
527,13281,3074,127,34.91369188,-83.74107459999998,Towns
528,13283,1880,71,32.40422134,-82.56904553,Treutlen
529,13285,18714,425,33.03349196,-85.02812115,Troup
530,13287,3176,65,31.71612656,-83.62069378,Turner
531,13289,1848,74,32.67435595,-83.43078662,Twiggs
532,13291,6131,181,34.82995757,-83.98967069,Union
533,13293,9593,259,32.87920671,-84.30024826,Upson
534,13295,19915,290,34.73376362,-85.30165174,Walker
535,13297,26558,479,33.78017694,-83.73552314,Walton
536,13299,11368,304,31.05449097,-82.42224148,Ware
537,13301,1291,36,33.41146451,-82.67795848,Warren
538,13303,5127,141,32.96711864,-82.79357039,Washington
539,13305,8863,222,31.5521809,-81.91894878,Wayne
540,13307,544,10,32.04066113,-84.54742852,Webster
541,13309,1589,39,32.12009104,-82.72574721,Wheeler
542,13311,8284,185,34.64624278,-83.74905525,White
543,13313,39146,492,34.80987459,-84.96093476,Whitfield
544,13315,2409,73,31.97496928,-83.43438555,Wilcox
545,13317,2622,56,33.78290391,-82.74286107,Wilkes
546,13319,2671,67,32.80291082,-83.17140684,Wilkinson
547,13321,5524,128,31.55162306,-83.85090513,Worth
548,15001,42399,234,19.60121157,-155.5210167,Hawaii
549,15003,263167,1343,21.45803166,-157.97121819999995,Honolulu
550,15005,3,0,21.17882515,-156.9583592,Kalawao
551,15007,19063,48,22.03935037,-159.5966786,Kauai
552,15009,45354,183,20.86399628,-156.56890969999995,Maui
553,16001,159699,1137,43.4526575,-116.24155159999998,Ada
554,16003,814,16,44.89333571,-116.4545247,Adams
555,16005,24359,272,42.67002716,-112.2233311,Bannock
556,16007,1137,19,42.28269683,-111.32892379999998,Bear Lake
557,16009,2740,45,47.21754179,-116.6586851,Benewah
558,16011,11114,174,43.21672879999999,-112.3978437,Bingham
559,16013,7252,33,43.4085812,-113.9752658,Blaine
560,16015,1292,14,43.98829931,-115.7309284,Boise
561,16017,10237,199,48.29996017,-116.6017932,Bonner
562,16019,35375,302,43.38713372,-111.6161537,Bonneville
563,16021,2411,69,48.76684761,-116.4630179,Boundary
564,16023,551,12,43.72592209,-113.1735463,Butte
565,16025,180,2,43.46665742,-114.8065892,Camas
566,16027,70280,735,43.61970148,-116.7095499,Canyon
567,16029,1664,35,42.77149116,-111.5597683,Caribou
568,16031,5579,57,42.28347888,-113.6012409,Cassia
569,16033,117,1,44.28496071,-112.3505704,Clark
570,16035,2675,40,46.67459924,-115.6622393,Clearwater
571,16037,705,9,44.24186819,-114.2855494,Custer
572,16039,8995,73,43.3507101,-115.4701578,Elmore
573,16041,2581,31,42.18332217,-111.8149666,Franklin
574,16043,2411,30,44.22800938,-111.4809943,Fremont
575,16045,4249,86,44.06482372,-116.398376,Gem
576,16047,3913,61,42.96927962,-114.8108306,Gooding
577,16049,3583,59,45.84721541,-115.4634436,Idaho
578,16051,6822,69,43.82078483,-112.3131749,Jefferson
579,16053,7086,68,42.68891267,-114.2655033,Jerome
580,16055,47102,666,47.67282258,-116.7020872,Kootenai
581,16057,7680,56,46.81587887,-116.7113698,Latah
582,16059,1750,28,44.9438088,-113.9309747,Lemhi
583,16061,1397,32,46.23315327,-116.434146,Lewis
584,16063,1294,15,43.0012336,-114.1358773,Lincoln
585,16065,13770,58,43.78141028,-111.65384740000002,Madison
586,16067,4781,71,42.85518524,-113.6357257,Minidoka
587,16069,10570,161,46.32638236,-116.7500975,Nez Perce
588,16071,953,12,42.19494279999999,-112.5407838,Oneida
589,16073,2598,56,42.58016894,-116.1693871,Owyhee
590,16075,6713,92,44.00545243,-116.7647695,Payette
591,16077,1653,20,42.69254894,-112.83957420000002,Power
592,16079,3117,80,47.35364087,-115.8916749,Shoshone
593,16081,2935,9,43.75303583,-111.2056773,Teton
594,16083,28538,312,42.35440512,-114.6685381,Twin Falls
595,16085,3140,17,44.76728382,-115.5676773,Valley
596,16087,2618,60,44.45275475,-116.7847688,Washington
597,17001,27773,233,39.98815591,-91.18786813,Adams
598,17003,1568,16,37.18049267,-89.32910838,Alexander
599,17005,5280,31,38.88829622,-89.43534887,Bond
600,17007,17466,127,42.32359279,-88.82345779,Boone
601,17009,2865,17,39.96209138,-90.75068024,Brown
602,17011,10218,133,41.40385234,-89.5283051,Bureau
603,17013,1884,6,39.16840183,-90.66330078,Calhoun
604,17015,5011,57,42.06823429,-89.93395545,Carroll
605,17017,5600,38,39.96991073,-90.24734436,Cass
606,17019,85410,313,40.13919438,-88.20046615,Champaign
607,17021,12973,119,39.54581621,-89.27780482,Christian
608,17023,5911,55,39.33425789,-87.78705622,Clark
609,17025,5894,76,38.75388572,-88.48914513,Clay
610,17027,14267,118,38.60704876,-89.42385254,Clinton
611,17029,18876,187,39.51949084,-88.22358557,Coles
612,17031,1520321,15238,41.84144849,-87.81658794,Cook
613,17033,7833,49,39.0032229,-87.75954624,Crawford
614,17035,3994,40,39.27432424,-88.2401158,Cumberland
615,17037,32340,215,41.89373302,-88.76958483,DeKalb
616,17039,5188,41,40.17514519,-88.90959682,De Witt
617,17041,7870,63,39.76768052,-88.21854195,Douglas
618,17043,287581,1852,41.85116968,-88.08642662,DuPage
619,17045,6571,60,39.6809186,-87.74759563,Edgar
620,17047,2120,29,38.41353228,-88.05720863,Edwards
621,17049,12785,146,39.05935711,-88.58969584,Effingham
622,17051,8705,105,39.00072038,-89.02452658,Fayette
623,17053,5453,70,40.59706922,-88.22350769,Ford
624,17055,15336,186,37.99189086,-88.92567818,Franklin
625,17057,12707,139,40.47289135,-90.20862357,Fulton
626,17059,1843,20,37.76430935,-88.22953869,Gallatin
627,17061,4255,49,39.35907414,-90.388865,Greene
628,17063,16190,154,41.28569601,-88.41905692,Grundy
629,17065,2659,33,38.08163641,-88.53883373,Hamilton
630,17067,5358,51,40.40423981,-91.16313899,Hancock
631,17069,1446,20,37.51810645,-88.26873022,Hardin
632,17071,1571,19,40.81908672,-90.92491462,Henderson
633,17073,15776,135,41.3533994,-90.13296166,Henry
634,17075,8802,131,40.74717633,-87.82466784,Iroquois
635,17077,20022,143,37.78595185,-89.38232563,Jackson
636,17079,3214,33,39.01054275,-88.15437049,Jasper
637,17081,13476,184,38.29980057,-88.9240025,Jefferson
638,17083,7815,80,39.08869046,-90.35393073,Jersey
639,17085,5141,45,42.36542373,-90.21094405,Jo Daviess
640,17087,5557,44,37.45939802,-88.88165419,Johnson
641,17089,164999,1212,41.93842729,-88.42861412,Kane
642,17091,36557,384,41.13746989,-87.86205334,Kankakee
643,17093,41521,170,41.59081014,-88.42869583,Kendall
644,17095,16139,245,40.93148779,-90.21330340000002,Knox
645,17097,208803,1536,42.3224907,-88.00367925,Lake
646,17099,36854,420,41.34426129999999,-88.88633881,LaSalle
647,17101,6806,45,38.71987914,-87.72884035,Lawrence
648,17103,11508,91,41.74583951,-89.29977132,Lee
649,17105,13089,145,40.89188292,-88.55784752,Livingston
650,17107,12578,100,40.12581572,-89.36638784,Logan
651,17109,8998,108,40.45674722,-90.67775541,McDonough
652,17111,97618,522,42.32451172,-88.45248227,McHenry
653,17113,63816,331,40.48996987,-88.84621113,McLean
654,17115,39893,372,39.86064913,-88.96342505,Macon
655,17117,15943,149,39.26119767,-89.92424028,Macoupin
656,17119,87045,855,38.83042506,-89.90422563,Madison
657,17121,14484,223,38.64963204,-88.91899208,Marion
658,17123,3466,34,41.0327901,-89.34510444,Marshall
659,17125,4721,66,40.23917274,-89.91824452,Mason
660,17127,4638,72,37.22078441,-88.71036614,Massac
661,17129,4563,29,40.02742725,-89.80246001,Menard
662,17131,4905,51,41.20596782,-90.74290052,Mercer
663,17133,11374,136,38.27594376,-90.17761038,Monroe
664,17135,12110,112,39.23198845,-89.47809254,Montgomery
665,17137,12240,137,39.71654544,-90.20255104,Morgan
666,17139,4909,51,39.64187451,-88.62099969,Moultrie
667,17141,17387,139,42.04165196,-89.32184679,Ogle
668,17143,59429,575,40.78702156,-89.76078901,Peoria
669,17145,9089,101,38.08510853,-89.36856219,Perry
670,17147,5550,23,40.01360584,-88.59319339,Piatt
671,17149,6127,70,39.62265059,-90.8877017,Pike
672,17151,1261,9,37.41391284,-88.56152109,Pope
673,17153,2046,24,37.22631423,-89.13085001,Pulaski
674,17155,1416,11,41.2013541,-89.2869272,Putnam
675,17157,12869,135,38.05095369,-89.82512254,Randolph
676,17159,6283,77,38.71240969,-88.08475366,Richland
677,17161,42093,519,41.46613806,-90.57042164,Rock Island
678,17163,80627,799,38.46996033,-89.93063427,St. Clair
679,17165,10293,106,37.75332999,-88.54119706,Saline
680,17167,75979,443,39.75836914,-89.65872023,Sangamon
681,17169,2467,18,40.1571798,-90.61114163,Schuyler
682,17171,1564,14,39.6429169,-90.47814431,Scott
683,17173,7575,81,39.39133527,-88.80611122,Shelby
684,17175,1879,39,41.09309773,-89.79745866,Stark
685,17177,14910,188,42.35129217,-89.662598,Stephenson
686,17179,45847,513,40.50716185,-89.51404662,Tazewell
687,17181,6831,69,37.47119609,-89.25548938,Union
688,17183,34869,320,40.18417171,-87.73384359,Vermilion
689,17185,4790,30,38.44272901,-87.84922065,Wabash
690,17187,5038,93,40.84925021,-90.6147432,Warren
691,17189,4117,36,38.35309213,-89.40982703,Washington
692,17191,6579,94,38.42955355,-88.42586459,Wayne
693,17193,5414,55,38.08706198,-88.17657461,White
694,17195,19377,244,41.75509713,-89.91556058,Whiteside
695,17197,215354,1687,41.44619267,-87.97862712,Will
696,17199,28740,273,37.73033511,-88.92994027,Williamson
697,17201,100056,899,42.33641854,-89.16085327,Winnebago
698,17203,12527,121,40.78579374,-89.20973757,Woodford
699,18001,8710,120,40.7457653,-84.93671406,Adams
700,18003,123852,1279,41.09194313,-85.06800636,Allen
701,18005,26734,270,39.20744865,-85.89558181,Bartholomew
702,18007,2968,28,40.60626947,-87.31093999,Benton
703,18009,3684,82,40.47388153,-85.32499702,Blackford
704,18011,17361,204,40.0509304,-86.46841646,Boone
705,18013,2980,63,39.19605589,-86.22868909,Brown
706,18015,4906,74,40.580783200000006,-86.56198812,Carroll
707,18017,14053,182,40.76135835,-86.34830753,Cass
708,18019,41026,433,38.48015445,-85.70510334,Clark
709,18021,8139,101,39.39561833,-87.11723506,Clay
710,18023,10601,146,40.30319754,-86.47277257,Clinton
711,18025,3085,45,38.28814402,-86.44518825,Crawford
712,18027,9036,165,38.70186039,-87.07185406,Daviess
713,18029,16199,179,39.14647946,-84.97333539,Dearborn
714,18031,8546,155,39.30712658,-85.50087166,Decatur
715,18033,13604,164,41.39804622,-84.99906934,DeKalb
716,18035,30095,499,40.22787247,-85.39732772,Delaware
717,18037,15024,179,38.36597551,-86.87924170000002,Dubois
718,18039,61282,793,41.59761169,-85.85875695,Elkhart
719,18041,8325,162,39.63684962,-85.17797541,Fayette
720,18043,24081,330,38.32117957,-85.90385377,Floyd
721,18045,6404,110,40.12361933,-87.24217689,Fountain
722,18047,5186,83,39.4142482,-85.06062647,Franklin
723,18049,5759,114,41.0469907,-86.26252745,Fulton
724,18051,14324,159,38.30393723,-87.58054938,Gibson
725,18053,20951,391,40.51587228,-85.65468702,Grant
726,18055,9046,152,39.03630547,-86.96223202,Greene
727,18057,96612,721,40.07306535,-86.05244729,Hamilton
728,18059,25138,300,39.82304555,-85.77566351,Hancock
729,18061,13289,165,38.19467379,-86.10948271,Harrison
730,18063,47656,612,39.76719009,-86.51037283,Hendricks
731,18065,16141,258,39.93029017,-85.39625719,Henry
732,18067,29984,487,40.48527731,-86.11351892,Howard
733,18069,14314,174,40.82907273,-85.48822092,Huntington
734,18071,15126,144,38.90915820000001,-86.03851889,Jackson
735,18073,11019,163,41.02078733,-87.11553319,Jasper
736,18075,5836,86,40.43781032,-85.00576229,Jay
737,18077,11199,179,38.78576239,-85.43633383,Jefferson
738,18079,8141,119,38.99588883,-85.62710784,Jennings
739,18081,50859,660,39.48994426,-86.10149107,Johnson
740,18083,14168,166,38.68861576,-87.4194665,Knox
741,18085,22861,255,41.24521668,-85.86312322,Kosciusko
742,18087,6530,114,41.64232188,-85.42674232,LaGrange
743,18089,133875,2002,41.41874274,-87.38277575,Lake
744,18091,31688,405,41.54366008,-86.74072188,LaPorte
745,18093,14452,284,38.84112637,-86.48361629,Lawrence
746,18095,39550,700,40.16143691,-85.71964711,Madison
747,18097,267680,3234,39.78163624,-86.13826325,Marion
748,18099,14029,216,41.32467367,-86.26185087,Marshall
749,18101,2607,30,38.7099921,-86.80373186,Martin
750,18103,10870,175,40.76940965,-86.04525048,Miami
751,18105,34346,322,39.16130004,-86.52414358,Monroe
752,18107,12268,173,40.04034823,-86.89335024,Montgomery
753,18109,19529,304,39.47899078,-86.44573375,Morgan
754,18111,3088,74,40.95610449,-87.39635768,Newton
755,18113,15700,177,41.39672484,-85.41966713,Noble
756,18115,1755,27,38.955305,-84.96515993,Ohio
757,18117,5908,105,38.54118920000001,-86.49523093,Orange
758,18119,6886,137,39.31145587,-86.83900724,Owen
759,18121,4328,57,39.77202286,-87.20375833,Parke
760,18123,5869,73,38.07809328,-86.63741946,Perry
761,18125,4486,55,38.40112197,-87.23574907,Pike
762,18127,47503,627,41.45986947,-87.06848888,Porter
763,18129,7883,63,38.02097333,-87.86480429,Posey
764,18131,3528,92,41.04166107,-86.69890683,Pulaski
765,18133,11166,138,39.66437981,-86.84517605,Putnam
766,18135,6999,163,40.15734772,-85.01139319,Randolph
767,18137,10040,157,39.10235626,-85.26212744,Ripley
768,18139,6063,61,39.62002287,-85.4655599,Rush
769,18141,84547,967,41.61756781,-86.29040834,St. Joseph
770,18143,9432,115,38.68672078,-85.74627859,Scott
771,18145,17056,191,39.52305623,-85.79158570000001,Shelby
772,18147,6139,64,38.01519732,-87.0079644,Spencer
773,18149,5609,111,41.27890281,-86.64686895,Starke
774,18151,11449,126,41.64423868,-85.00101094,Steuben
775,18153,6386,85,39.08952258,-87.41414469,Sullivan
776,18155,2659,30,38.82767338,-85.03022429,Switzerland
777,18157,60747,460,40.38872739,-86.89413959,Tippecanoe
778,18159,3983,94,40.31123252,-86.05234925,Tipton
779,18161,2337,29,39.62550777,-84.92497066,Union
780,18163,70614,687,38.02658833,-87.58763124,Vanderburgh
781,18165,4907,82,39.8523352,-87.46160542,Vermillion
782,18167,35028,453,39.42944561,-87.39169027,Vigo
783,18169,10403,172,40.84704239,-85.79328272,Wabash
784,18171,2373,30,40.34728141,-87.35602659,Warren
785,18173,24794,261,38.08922676,-87.2716085,Warrick
786,18175,7160,101,38.60219804,-86.1049363,Washington
787,18177,23357,361,39.8633444,-85.01044989,Wayne
788,18179,7547,144,40.72934187,-85.22132966,Wells
789,18181,8219,102,40.74911165,-86.86492015,White
790,18183,11393,91,41.13863784,-85.50791236,Whitley
791,19001,1799,52,41.33075609,-94.47105874,Adair
792,19003,936,15,41.02903567,-94.69932645,Adams
793,19005,3231,67,43.28383218,-91.37860922,Allamakee
794,19007,3425,80,40.74324454,-92.86865906,Appanoose
795,19009,1309,25,41.6844628,-94.90581859,Audubon
796,19011,7214,82,42.08011739,-92.06463573,Benton
797,19013,38803,525,42.4704581,-92.30524729,Black Hawk
798,19015,6505,70,42.03657094,-93.9313999,Boone
799,19017,6351,88,42.77461496,-92.31795937,Bremer
800,19019,5511,67,42.4709188,-91.83510825,Buchanan
801,19021,6978,66,42.73545875,-95.15100162,Buena Vista
802,19023,3800,62,42.73172833,-92.79015971,Butler
803,19025,3063,26,42.38521079,-94.64046046,Calhoun
804,19027,5653,83,42.03617207,-94.86032705,Carroll
805,19029,3313,87,41.33149454,-94.92792482,Cass
806,19031,5025,49,41.77233777,-91.13246684,Cedar
807,19033,12747,181,43.08177563,-93.2612239,Cerro Gordo
808,19035,3569,74,42.73538914,-95.62389402,Cherokee
809,19037,3152,37,43.06001295,-92.31773347,Chickasaw
810,19039,2690,43,41.02868181,-93.78499767,Clarke
811,19041,4807,53,43.08247182,-95.15096481,Clay
812,19043,4018,80,42.84443388,-91.34133693,Clayton
813,19045,13827,172,41.89981633,-90.53275096,Clinton
814,19047,5020,59,42.03718237,-95.3819718,Crawford
815,19049,26794,159,41.68560356,-94.04127625,Dallas
816,19051,1821,35,40.74773536,-92.41005468,Davis
817,19053,1840,29,40.73742757,-93.78645949,Decatur
818,19055,4756,71,42.47104597,-91.3664492,Delaware
819,19057,11234,165,40.92012606,-91.18326592,Des Moines
820,19059,4723,78,43.37787725,-95.1510206,Dickinson
821,19061,30896,329,42.46815349,-90.88181925,Dubuque
822,19063,2677,56,43.37782951,-94.67858943,Emmet
823,19065,4931,87,42.86271799,-91.8441231,Fayette
824,19067,4177,69,43.06000529999999,-92.78940097,Floyd
825,19069,2943,50,42.73270384,-93.26256925,Franklin
826,19071,1634,29,40.74542720000001,-95.60129045,Fremont
827,19073,2047,28,42.03614551,-94.39658081,Greene
828,19075,3042,50,42.40183723,-92.78829551,Grundy
829,19077,2769,48,41.68378965,-94.50111014,Guthrie
830,19079,3988,89,42.38382428,-93.70197703,Hamilton
831,19081,3277,51,43.08178477,-93.73454884,Hancock
832,19083,5050,71,42.38353877,-93.23654611,Hardin
833,19085,3834,101,41.68330137,-95.81558439,Harrison
834,19087,6500,84,40.98767962,-91.54436349,Henry
835,19089,2308,37,43.35671042,-92.31702714,Howard
836,19091,3055,44,42.7764426,-94.20722537,Humboldt
837,19093,2136,51,42.38696136,-95.51355387,Ida
838,19095,4323,53,41.68630265,-92.0643373,Iowa
839,19097,5511,75,42.17178824,-90.57354837,Jackson
840,19099,10403,124,41.68576082,-93.05567785,Jasper
841,19101,4361,62,41.03192394,-91.94849466,Jefferson
842,19103,44831,182,41.67169354,-91.58754744,Johnson
843,19105,6452,84,42.12118609,-91.13139641,Jones
844,19107,2476,55,41.33649833,-92.1785067,Keokuk
845,19109,4341,98,43.20405458,-94.20691791,Kossuth
846,19111,9187,148,40.64181461,-91.48183025,Lee
847,19113,64506,662,42.07923082,-91.59809485,Linn
848,19115,2944,67,41.21842119,-91.26102611,Louisa
849,19117,2177,34,41.02958964,-93.32780803,Lucas
850,19119,3150,55,43.38107862,-96.20926845,Lyon
851,19121,3689,45,41.33081904,-94.01554631,Madison
852,19123,5780,95,41.33521503,-92.64083907,Mahaska
853,19125,8864,134,41.33445101,-93.09934783,Marion
854,19127,11391,134,42.03586837,-92.9990819,Marshall
855,19129,3993,47,41.03299766,-95.61920963,Mills
856,19131,2819,51,43.35638371,-92.78887719,Mitchell
857,19133,2083,53,42.05220391,-95.95743843,Monona
858,19135,2187,52,41.02988815,-92.8690667,Monroe
859,19137,2586,59,41.03018714,-95.15642896,Montgomery
860,19139,11221,139,41.48370744,-91.1121697,Muscatine
861,19141,3869,73,43.08310673,-95.62474482,O'Brien
862,19143,1573,23,43.37824276,-95.62422844,Osceola
863,19145,3836,55,40.7393172,-95.1497813,Page
864,19147,2397,41,43.08193849,-94.67824621,Palo Alto
865,19149,7121,113,42.737633,-96.21366621,Plymouth
866,19151,1935,31,42.73420133,-94.67862564,Pocahontas
867,19153,147032,1222,41.68679484,-93.57767461,Polk
868,19155,27888,353,41.33640314,-95.53907776,Pottawattamie
869,19157,4623,65,41.68625425,-92.53155731,Poweshiek
870,19159,1317,42,40.73518949,-94.24368535,Ringgold
871,19161,2872,43,42.38624071,-95.10547892,Sac
872,19163,48742,445,41.63935978,-90.61959493,Scott
873,19165,3165,59,41.6850066,-95.31015553,Shelby
874,19167,8924,97,43.08221074,-96.1767568,Sioux
875,19169,23244,104,42.03621213,-93.46499005,Story
876,19171,4646,101,42.07991767,-92.53266945,Tama
877,19173,1531,25,40.73710579,-94.69778563,Taylor
878,19175,3161,56,41.0277278,-94.24234847,Union
879,19177,1695,28,40.75326764,-91.95017958,Van Buren
880,19179,10413,222,41.03064984,-92.40954728,Wapello
881,19181,14470,154,41.33559454,-93.56007641,Warren
882,19183,6800,89,41.33577126,-91.71725711,Washington
883,19185,1516,35,40.73969028,-93.32752197,Wayne
884,19187,12086,186,42.42853483,-94.17987389,Webster
885,19189,3459,48,43.37751174,-93.73407298,Winnebago
886,19191,4484,55,43.29094334,-91.84422722,Winneshiek
887,19193,33014,357,42.38979414,-96.0459439,Woodbury
888,19195,2044,17,43.37750768,-93.26087602,Worth
889,19197,4032,71,42.73305373,-93.73515113,Wright
890,20001,5101,65,37.88582951,-95.30030847,Allen
891,20003,2577,38,38.21413251,-95.29272815,Anderson
892,20005,5028,45,39.53185661,-95.30870026,Atchison
893,20007,1229,13,37.2288586,-98.68460053,Barber
894,20009,7630,124,38.47889676,-98.75636726,Barton
895,20011,5585,64,37.85508555,-94.84865997,Bourbon
896,20013,3138,51,39.82652589,-95.56421698,Brown
897,20015,22491,237,37.78134351,-96.83878537,Butler
898,20017,796,10,38.30292938,-96.59563862,Chase
899,20019,994,22,37.14994405,-96.2454192,Chautauqua
900,20021,7385,98,37.16928494,-94.8462897,Cherokee
901,20023,728,16,39.78580976,-101.7318201,Cheyenne
902,20025,578,8,37.23577007,-99.81883015,Clark
903,20027,2451,49,39.34948772,-97.16518128,Clay
904,20029,2663,50,39.48028352,-97.64925343,Cloud
905,20031,2821,48,38.2365018,-95.73379515,Coffey
906,20033,546,18,37.19114520000001,-99.27113247,Comanche
907,20035,12393,175,37.23781842,-96.83776647,Cowley
908,20037,15084,148,37.50675523,-94.85245778,Crawford
909,20039,787,22,39.78468441,-100.4594081,Decatur
910,20041,5878,107,38.86600962,-97.15532383,Dickinson
911,20043,2834,39,39.79067154,-95.14056866,Doniphan
912,20045,34079,176,38.88503636,-95.2925121,Douglas
913,20047,676,16,37.88735543,-99.31263309,Edwards
914,20049,695,13,37.45338105,-96.24369667,Elk
915,20051,8400,92,38.91458712,-99.31751551,Ellis
916,20053,2433,34,38.69677695,-98.20462799,Ellsworth
917,20055,13368,127,38.04340344,-100.7381938,Finney
918,20057,12363,123,37.69200114,-99.88825298,Ford
919,20059,8182,103,38.56443815,-95.28644341,Franklin
920,20061,11354,90,38.99871131,-96.7577178,Geary
921,20063,943,24,38.91588178,-100.4829321,Gove
922,20065,755,20,39.34987223,-99.88332493,Graham
923,20067,2782,40,37.56227336,-101.3079758,Grant
924,20069,1416,25,37.73836671,-100.4369088,Gray
925,20071,391,6,38.4808095,-101.8061079,Greeley
926,20073,2206,27,37.8774388,-96.23250453,Greenwood
927,20075,547,6,37.99978709,-101.7921066,Hamilton
928,20077,1915,29,37.19175361,-98.07578384,Harper
929,20079,11858,136,38.04293782,-97.42747573,Harvey
930,20081,1129,15,37.5620394,-100.8710738,Haskell
931,20083,496,13,38.08780079,-99.89829881,Hodgeman
932,20085,4615,40,39.41673394,-95.79356799,Jackson
933,20087,5723,71,39.2347941,-95.38289232,Jefferson
934,20089,952,17,39.78470589,-98.21820662,Jewell
935,20091,177211,1367,38.88548175,-94.82250877,Johnson
936,20093,1369,22,38.00017981,-101.321681,Kearny
937,20095,2327,30,37.55909527,-98.13638678,Kingman
938,20097,770,8,37.55848695,-99.2856537,Kiowa
939,20099,7954,89,37.19113093,-95.29849679,Labette
940,20101,370,12,38.48119447,-100.4660754,Lane
941,20103,24108,211,39.20183497,-95.03620809,Leavenworth
942,20105,735,12,39.04549684,-98.20756994,Lincoln
943,20107,3456,36,38.21267844,-94.84254089,Linn
944,20109,1015,16,38.91735806,-101.148475,Logan
945,20111,12030,135,38.45576156,-96.15275715,Lyon
946,20113,9504,142,38.39184858,-97.64769869,McPherson
947,20115,4006,56,38.35855394,-97.0985251,Marion
948,20117,2947,51,39.78359669,-96.52278974,Marshall
949,20119,1411,26,37.23859987,-100.364831,Meade
950,20121,9589,107,38.56383358,-94.83832189,Miami
951,20123,1754,26,39.39331582,-98.20906732,Mitchell
952,20125,10954,181,37.19236568,-95.74329258,Montgomery
953,20127,1763,33,38.68827511,-96.65128437,Morris
954,20129,742,12,37.19141121,-101.79925190000002,Morton
955,20131,3780,66,39.78345387,-96.01392079,Nemaha
956,20133,6079,80,37.55862897,-95.30670046,Neosho
957,20135,896,19,38.47974157,-99.91547333,Ness
958,20137,2452,39,39.78443827,-99.90286639,Norton
959,20139,4855,68,38.65235984,-95.72707998,Osage
960,20141,1011,21,39.3503437,-98.76753828,Osborne
961,20143,1444,24,39.13237408,-97.65020313,Ottawa
962,20145,2573,27,38.18108732,-99.23692334,Pawnee
963,20147,1682,33,39.78465501,-99.34668865,Phillips
964,20149,7077,70,39.37925655,-96.34564657,Pottawatomie
965,20151,2272,40,37.64780729,-98.73922153,Pratt
966,20153,775,11,39.78525843,-101.0761617,Rawlins
967,20155,22635,277,37.95230263,-98.08607292,Reno
968,20157,1551,22,39.82799632,-97.65036709,Republic
969,20159,3067,33,38.34616184,-98.19992118,Rice
970,20161,16336,110,39.28935726,-96.73420026,Riley
971,20163,1582,21,39.35022773,-99.32484567,Rooks
972,20165,961,24,38.52275276,-99.30863983,Rush
973,20167,2153,43,38.91462787,-98.76254297,Russell
974,20169,16991,274,38.78369175,-97.65185177,Saline
975,20171,1570,38,38.48222076,-100.9066539,Scott
976,20173,170567,1704,37.6842718,-97.4608198,Sedgwick
977,20175,8464,70,37.19324632,-100.8507201,Seward
978,20177,60325,734,39.04100763,-95.7557264,Shawnee
979,20179,899,19,39.35018161,-100.4418259,Sheridan
980,20181,1802,23,39.35147699,-101.7197624,Sherman
981,20183,827,9,39.78516566,-98.78566062,Smith
982,20185,1388,32,38.03100851,-98.71762001,Stafford
983,20187,526,12,37.56304714,-101.7843534,Stanton
984,20189,1895,27,37.1923008,-101.3118967,Stevens
985,20191,6618,84,37.23682549,-97.47721621,Sumner
986,20193,3000,31,39.35107575,-101.0553705,Thomas
987,20195,945,15,38.91467218,-99.87284448,Trego
988,20197,1987,24,38.95471985,-96.20350509,Wabaunsee
989,20199,487,8,38.91686134,-101.7638876,Wallace
990,20201,1605,27,39.78420784,-97.0875323,Washington
991,20203,598,10,38.48178252,-101.3471509,Wichita
992,20205,3443,56,37.55937174,-95.74323255,Wilson
993,20207,1035,17,37.8865336,-95.74006277,Woodson
994,20209,54410,526,39.11727348,-94.76378225,Wyandotte
995,21001,7780,115,37.10459774,-85.28129668,Adair
996,21003,8495,125,36.75197631,-86.19457544,Allen
997,21005,8465,79,38.00671029,-84.99171713,Anderson
998,21007,1736,37,37.05842757,-88.99427697,Ballard
999,21009,17223,239,36.96469836,-85.93338945,Barren
1000,21011,4631,53,38.14735938,-83.74588932,Bath
1001,21013,11109,172,36.73355174,-83.67766671,Bell
1002,21015,46828,352,38.97065142,-84.72615357,Boone
1003,21017,7794,74,38.2054607,-84.21827874,Bourbon
1004,21019,22787,209,38.36176608,-82.68652187,Boyd
1005,21021,11397,163,37.62680923,-84.8633779,Boyle
1006,21023,2748,29,38.69158994,-84.08532444,Bracken
1007,21025,5372,72,37.52333168,-83.31959161,Breathitt
1008,21027,6672,89,37.77377239,-86.42885017,Breckinridge
1009,21029,29051,257,37.97162523,-85.68955617,Bullitt
1010,21031,4735,58,37.20946153,-86.68748787,Butler
1011,21033,5062,65,37.14749129,-87.86948214,Caldwell
1012,21035,11762,105,36.62093411,-88.2731593,Calloway
1013,21037,30045,211,38.94384345,-84.37875208,Campbell
1014,21039,1349,24,36.85372876,-88.96692220000001,Carlisle
1015,21041,4307,54,38.66599534,-85.12601074,Carroll
1016,21043,12010,122,38.31690743,-83.05092385,Carter
1017,21045,5376,84,37.32533118,-84.92726209,Casey
1018,21047,20053,235,36.89267803,-87.49055367,Christian
1019,21049,14439,83,37.9689263,-84.14615986,Clark
1020,21051,9717,110,37.16451126,-83.712575,Clay
1021,21053,4738,58,36.72581156,-85.13377529,Clinton
1022,21055,2840,57,37.35839237,-88.08826090000002,Crittenden
1023,21057,2770,35,36.78926125,-85.39050034,Cumberland
1024,21059,38669,445,37.73028906,-87.09019479999998,Daviess
1025,21061,3281,57,37.21218923,-86.23955613,Edmonson
1026,21063,3658,22,38.11624059,-83.09771563,Elliott
1027,21065,5281,58,37.69241417,-83.95956369,Estill
1028,21067,122524,724,38.0368225,-84.45576892,Fayette
1029,21069,4973,74,38.36758311,-83.69657514,Fleming
1030,21071,16883,254,37.56213922,-82.74750924,Floyd
1031,21073,18505,190,38.2379395,-84.87962551,Franklin
1032,21075,1470,35,36.55238827,-89.20140068,Fulton
1033,21077,2792,57,38.75398691,-84.8558382,Gallatin
1034,21079,5977,92,37.6388668,-84.53289319,Garrard
1035,21081,9951,74,38.64962758,-84.62415957,Grant
1036,21083,13638,205,36.72292505,-88.65143315,Graves
1037,21085,10052,151,37.46231118,-86.34248968,Grayson
1038,21087,4819,51,37.26484328,-85.5540745,Green
1039,21089,16680,159,38.54332505,-82.9215658,Greenup
1040,21091,3142,30,37.83766422,-86.78280584,Hancock
1041,21093,43631,491,37.6976111,-85.96319251,Hardin
1042,21095,12777,233,36.85699301,-83.21899516,Harlan
1043,21097,8512,90,38.44188174,-84.32869741,Harrison
1044,21099,6865,110,37.29943898,-85.88461055,Hart
1045,21101,17626,184,37.79344553,-87.57392021,Henderson
1046,21103,6373,61,38.44942688,-85.11587507,Henry
1047,21105,1092,31,36.67948079999999,-88.97875928,Hickman
1048,21107,19659,283,37.30939025,-87.54670406,Hopkins
1049,21109,5208,84,37.41866422,-83.99825483,Jackson
1050,21111,281920,2665,38.18664655,-85.65931031,Jefferson
1051,21113,19048,168,37.87119786,-84.58252003,Jessamine
1052,21115,9035,138,37.85106355,-82.8264322,Johnson
1053,21117,54017,472,38.93950319,-84.53241199,Kenton
1054,21119,6057,77,37.35388197,-82.94981134,Knott
1055,21121,14980,173,36.89225732,-83.85403396,Knox
1056,21123,4800,80,37.54567114,-85.70138352,Larue
1057,21125,26890,287,37.10975748,-84.11321779,Laurel
1058,21127,5538,80,38.07136018,-82.72882223,Lawrence
1059,21129,3499,59,37.59645942,-83.71513901,Lee
1060,21131,5206,60,37.09246661,-83.37999606,Leslie
1061,21133,9835,137,37.12306748,-82.85346474,Letcher
1062,21135,5723,94,38.53184419,-83.37735618,Lewis
1063,21137,8881,150,37.45475628,-84.6565327,Lincoln
1064,21139,3097,66,37.21137452,-88.34797529,Livingston
1065,21141,10294,138,36.85949479,-86.877635,Logan
1066,21143,3613,41,37.02080035,-88.07886257,Lyon
1067,21145,23893,311,37.05350953,-88.70445755,McCracken
1068,21147,7695,90,36.73874143,-84.48102924,McCreary
1069,21149,3336,62,37.5301951,-87.26803443,McLean
1070,21151,35341,309,37.71659336,-84.27220275,Madison
1071,21153,5140,62,37.70820545,-83.0657714,Magoffin
1072,21155,8024,92,37.55218078,-85.26898542,Marion
1073,21157,10234,129,36.88007070000001,-88.32803576,Marshall
1074,21159,4223,54,37.79990579,-82.51247478,Martin
1075,21161,6291,116,38.59471935,-83.82151043,Mason
1076,21163,7439,69,37.96163597,-86.21028219,Meade
1077,21165,2354,36,37.94090733,-83.59985712,Menifee
1078,21167,9434,118,37.81474237,-84.87488475,Mercer
1079,21169,3709,77,36.99459295,-85.63123699,Metcalfe
1080,21171,4491,90,36.71225341,-85.71596443,Monroe
1081,21173,11321,128,38.03253032,-83.9145241,Montgomery
1082,21175,6685,36,37.92465657,-83.25558245,Morgan
1083,21177,13269,135,37.21425819,-87.14632053,Muhlenberg
1084,21179,19180,171,37.80335779,-85.4657193,Nelson
1085,21181,2715,35,38.33342292,-84.01889177,Nicholas
1086,21183,8946,122,37.47751843,-86.85368087,Ohio
1087,21185,23544,164,38.39791089,-85.448222,Oldham
1088,21187,3122,40,38.51679143,-84.82404619,Owen
1089,21189,2091,33,37.42823949,-83.68811419,Owsley
1090,21191,4349,43,38.69607718,-84.35599463,Pendleton
1091,21193,15950,208,37.25023553,-83.22922731,Perry
1092,21195,25107,366,37.47088263,-82.39487445,Pike
1093,21197,6444,51,37.83218794,-83.82553961,Powell
1094,21199,22077,328,37.10466131,-84.57629079,Pulaski
1095,21201,876,22,38.51923469,-84.05055616,Robertson
1096,21203,6626,69,37.36642393,-84.31176452,Rockcastle
1097,21205,9745,79,38.19484205,-83.42088935,Rowan
1098,21207,8338,100,36.99308373,-85.06070117,Russell
1099,21209,22810,124,38.29622293,-84.5816631,Scott
1100,21211,16840,186,38.21476019,-85.194223,Shelby
1101,21213,7481,104,36.74058474,-86.58047435,Simpson
1102,21215,7052,67,38.03223971,-85.32749335,Spencer
1103,21217,11788,144,37.3677562,-85.3329931,Taylor
1104,21219,3553,48,36.8381152,-87.17878374,Todd
1105,21221,5075,50,36.80767017,-87.87333656,Trigg
1106,21223,2744,48,38.61056487,-85.33775972,Trimble
1107,21225,5436,63,37.66166713,-87.94300009,Union
1108,21227,55008,427,36.99903045,-86.42672751,Warren
1109,21229,5067,71,37.75599461,-85.17407732,Washington
1110,21231,8289,106,36.80310688,-84.8251971,Wayne
1111,21233,4888,52,37.52168356,-87.67989953,Webster
1112,21235,17126,234,36.75700531,-84.14541217,Whitley
1113,21237,3554,30,37.73941626,-83.49303612,Wolfe
1114,21239,9476,60,38.04178222,-84.7417556,Woodford
1115,22001,18892,310,30.2950649,-92.41419698,Acadia
1116,22003,9040,145,30.65385745,-92.82442028,Allen
1117,22005,45035,312,30.20406249,-90.91328409999998,Ascension
1118,22007,6769,73,29.89946234,-91.06461642,Assumption
1119,22009,14308,218,31.07796211,-92.00079449,Avoyelles
1120,22011,11173,145,30.64836518,-93.34173616,Beauregard
1121,22013,4984,117,32.34569994,-93.05398492,Bienville
1122,22015,50802,548,32.67932307,-93.60460152,Bossier
1123,22017,88195,1281,32.57991587,-93.88375652,Caddo
1124,22019,67837,743,30.22931235,-93.35400434,Calcasieu
1125,22021,4599,57,32.0902519,-92.11752148,Caldwell
1126,22023,1386,10,29.87592238,-93.19310676,Cameron
1127,22025,3132,62,31.66778967,-91.84526385,Catahoula
1128,22027,4094,84,32.82308512,-92.99526883,Claiborne
1129,22029,6427,91,31.44817835,-91.63814433,Concordia
1130,22031,9734,146,32.05457447,-93.74130302,De Soto
1131,22033,143480,1426,30.53842039,-91.09777565,East Baton Rouge
1132,22035,3326,38,32.73926954,-91.23425694,East Carroll
1133,22037,8336,179,30.84425359,-91.04976723,East Feliciana
1134,22039,10201,165,30.72985248,-92.39915924,Evangeline
1135,22041,8862,195,32.13675181,-91.67589857,Franklin
1136,22043,7511,99,31.59882456,-92.56124347,Grant
1137,22045,23815,274,29.86803617,-91.75871777,Iberia
1138,22047,11609,157,30.25734305,-91.3499598,Iberville
1139,22049,5571,85,32.30251776,-92.55692092,Jackson
1140,22051,142027,1466,29.74075478,-90.11115756,Jefferson
1141,22053,8176,174,30.26896765,-92.81210004,Jefferson Davis
1142,22055,78853,541,30.2049055,-92.06959876,Lafayette
1143,22057,34714,407,29.52470226,-90.40976986,Lafourche
1144,22059,5079,71,31.67884782,-92.15907765,LaSalle
1145,22061,15378,160,32.6003154,-92.6659741,Lincoln
1146,22063,47042,488,30.44143993,-90.73061664,Livingston
1147,22065,3929,65,32.36918118,-91.23973355,Madison
1148,22067,8477,145,32.81686191,-91.80421614,Morehouse
1149,22069,13008,188,31.72321584,-93.09816516,Natchitoches
1150,22071,113770,1196,30.06971951,-89.92660315,Orleans
1151,22073,64611,863,32.47645559,-92.15704172,Ouachita
1152,22075,7909,49,29.42245447,-89.60322085,Plaquemines
1153,22077,7925,98,30.71409502,-91.60209535,Pointe Coupee
1154,22079,42457,612,31.19778499,-92.52997303,Rapides
1155,22081,2565,59,32.09530039,-93.34213308,Red River
1156,22083,8953,107,32.41391005,-91.76634876,Richland
1157,22085,8005,127,31.56388699,-93.55433981,Sabine
1158,22087,14395,120,29.87761636,-89.51887093,St. Bernard
1159,22089,17177,158,29.90709658,-90.35555967,St. Charles
1160,22091,2271,27,30.82210324,-90.71013176,St. Helena
1161,22093,7330,80,30.02531716,-90.80212061,St. James
1162,22095,13222,191,30.12597499,-90.4753503,St. John the Baptist
1163,22097,27713,433,30.59724262,-92.00135806,St. Landry
1164,22099,15774,199,30.13112107,-91.61403569,St. Martin
1165,22101,15232,286,29.69262097,-91.44702164,St. Mary
1166,22103,91147,940,30.40942847,-89.95642711,St. Tammany
1167,22105,45049,672,30.62888673,-90.40664996,Tangipahoa
1168,22107,1327,13,32.00760749,-91.32915234,Tensas
1169,22109,38765,452,29.37343766,-90.82626855,Terrebonne
1170,22111,8787,143,32.83121059,-92.3749373,Union
1171,22113,19032,247,29.83517605,-92.30292538,Vermilion
1172,22115,11750,201,31.10884837,-93.18153838,Vernon
1173,22117,16194,271,30.85288548,-90.03866652,Washington
1174,22119,14418,203,32.70847669,-93.33121835,Webster
1175,22121,9577,93,30.46058217,-91.30989571,West Baton Rouge
1176,22123,4829,77,32.78550125,-91.461201,West Carroll
1177,22125,3339,51,30.87882871,-91.4148538,West Feliciana
1178,22127,5542,73,31.94449367,-92.63789413,Winn
1179,23001,28226,332,44.1664747,-70.20380627,Androscoggin
1180,23003,18169,198,46.65926321,-68.59841248,Aroostook
1181,23005,65851,498,43.8370751,-70.37226999,Cumberland
1182,23007,7243,71,44.97330019,-70.44381045,Franklin
1183,23009,10096,119,44.59816444,-68.38401854,Hancock
1184,23011,29965,309,44.40759555,-69.76738544,Kennebec
1185,23013,8078,55,44.11486325,-69.10529169,Knox
1186,23015,6855,44,44.05996956,-69.54227124,Lincoln
1187,23017,14433,177,44.49952995,-70.75682123,Oxford
1188,23019,37117,390,45.40194593,-68.65020455,Penobscot
1189,23021,3895,45,45.83839062,-69.2860223,Piscataquis
1190,23023,6962,45,43.95415864,-69.85074999,Sagadahoc
1191,23025,12802,123,45.51229767,-69.95995554,Somerset
1192,23027,8019,79,44.4858305,-69.12061935,Waldo
1193,23029,5706,72,45.01607142,-67.62813524,Washington
1194,23031,51643,360,43.47808377,-70.71052375,York
1195,24001,21631,387,39.62357628,-78.69280486,Allegany
1196,24003,119222,1267,39.00670238,-76.60329337,Anne Arundel
1197,24005,171602,2804,39.45784712,-76.62911955,Baltimore
1198,24009,14736,170,38.53961642,-76.56820632,Calvert
1199,24011,7305,92,38.87172293,-75.82904158,Caroline
1200,24013,27996,474,39.56453592,-77.02373735,Carroll
1201,24015,20271,285,39.56647682,-75.94627411,Cecil
1202,24017,38564,404,38.51092331,-76.98580666,Charles
1203,24019,9517,116,38.45413522,-76.02752426,Dorchester
1204,24021,58236,616,39.47296601,-77.39999394,Frederick
1205,24023,7155,124,39.52786077,-79.27355126,Garrett
1206,24025,49851,672,39.55010644,-76.30775940000002,Harford
1207,24027,63850,457,39.25305293,-76.93126208,Howard
1208,24029,3939,79,39.24976208,-76.04741541,Kent
1209,24031,244774,2360,39.13676329,-77.20358245,Montgomery
1210,24033,228493,2376,38.83070039,-76.8496441,Prince George's
1211,24035,8810,130,39.06198912,-76.03530977,Queen Anne's
1212,24037,24511,250,38.30058422,-76.60629279999998,St. Mary's
1213,24039,6171,79,38.1163542,-75.75118623,Somerset
1214,24041,7204,115,38.76618159,-76.10882561,Talbot
1215,24043,40876,641,39.60835778,-77.82002295,Washington
1216,24045,24783,364,38.37301947,-75.62705831,Wicomico
1217,24047,10825,186,38.21274277,-75.33200012,Worcester
1218,24510,148793,1954,39.30211911,-76.61151012,Baltimore City
1219,25001,49249,769,41.72980578,-70.28854339,Barnstable
1220,25003,35103,474,42.37428441,-73.20524838,Berkshire
1221,25005,181552,2525,41.79228404,-71.10872211,Bristol
1222,25007,0,0,41.40674725,-70.68763497,Dukes
1223,25009,255886,3231,42.6687626,-70.94687179,Essex
1224,25011,14670,190,42.58119713,-72.58602547,Franklin
1225,25013,171177,2121,42.13440424,-72.63235561,Hampden
1226,25015,39506,444,42.33997957,-72.65898478,Hampshire
1227,25017,435184,4761,42.48607732,-71.39049229,Middlesex
1228,25019,0,0,41.2942019,-70.08774729,Nantucket
1229,25021,172831,2297,42.16073095,-71.20530408,Norfolk
1230,25023,142896,1938,41.94070556,-70.80802823,Plymouth
1231,25025,267082,2219,42.3279514,-71.07850442,Suffolk
1232,25027,239449,3028,42.35026951,-71.90493363,Worcester
1233,26001,1926,78,44.6846864,-83.59507875,Alcona
1234,26003,2120,19,46.41292944,-86.60260122,Alger
1235,26005,32101,401,42.59147037,-85.89102866,Allegan
1236,26007,6518,159,45.03477666,-83.62212411,Alpena
1237,26009,5257,76,44.99690221,-85.15503082,Antrim
1238,26011,3884,86,44.0636262,-83.89277559,Arenac
1239,26013,2596,62,46.6720582,-88.36363591,Baraga
1240,26015,16914,192,42.59513984,-85.30834519,Barry
1241,26017,31630,687,43.70639106,-83.98731479,Bay
1242,26019,4126,78,44.63899297,-86.01608482,Benzie
1243,26021,41942,689,41.95447397,-86.41313079999998,Berrien
1244,26023,13447,210,41.91600556,-85.05929476,Branch
1245,26025,42387,681,42.24633834,-85.00493569,Calhoun
1246,26027,13086,170,41.91522292,-85.99405727,Cass
1247,26029,5857,69,45.37790017,-85.19614053,Charlevoix
1248,26031,5766,131,45.44787015,-84.50122149,Cheboygan
1249,26033,10231,120,46.29552653,-84.54353449,Chippewa
1250,26035,8117,182,43.98794227,-84.84819859999998,Clare
1251,26037,28016,237,42.94400871,-84.60145248,Clinton
1252,26039,3189,37,44.68255561,-84.61006219,Crawford
1253,26041,12402,189,45.90484910000001,-86.9080745,Delta
1254,26043,9332,130,46.00999672,-87.86961634,Dickinson
1255,26045,34863,473,42.59599185,-84.83740035,Eaton
1256,26047,7593,109,45.52625509,-84.89083249,Emmet
1257,26049,124797,2007,43.02244215,-83.70589709,Genesee
1258,26051,6771,135,43.98901072,-84.38774817,Gladwin
1259,26053,4277,78,46.40862701,-89.69377193,Gogebic
1260,26055,21492,273,44.69565625,-85.55585247,Grand Traverse
1261,26057,12946,210,43.29265605,-84.60505416,Gratiot
1262,26059,12658,225,41.88753639,-84.59312019,Hillsdale
1263,26061,9492,108,46.89988536,-88.68495385,Houghton
1264,26063,9730,166,43.83353985,-83.04078453,Huron
1265,26065,84347,907,42.59716886,-84.37472069,Ingham
1266,26067,19947,206,42.94502238,-85.07413319,Ionia
1267,26069,5683,175,44.35486835,-83.63484895,Iosco
1268,26071,3589,101,46.20974132,-88.53136251,Iron
1269,26073,17943,236,43.64060976,-84.84664923,Isabella
1270,26075,50175,641,42.24807035,-84.42258681,Jackson
1271,26077,75495,812,42.24542231,-85.53038622,Kalamazoo
1272,26079,4491,70,44.68512729,-85.09085699,Kalkaska
1273,26081,201264,1835,43.03197711,-85.54934642,Kent
1274,26083,652,16,47.63197653,-88.41434263,Keweenaw
1275,26085,2445,42,43.99050893,-85.802173,Lake
1276,26087,24259,476,43.09052506,-83.22153148,Lapeer
1277,26089,4423,67,44.94430054,-85.80150326,Leelanau
1278,26091,30765,364,41.89475156,-84.06603727,Lenawee
1279,26093,58078,537,42.60302282,-83.91297209,Livingston
1280,26095,1668,21,46.47227431,-85.54471223,Luce
1281,26097,2987,40,46.07028979,-85.04980537,Mackinac
1282,26099,299232,4587,42.69158356,-82.92752801,Macomb
1283,26101,4853,107,44.33352407,-86.05626916,Manistee
1284,26103,19171,168,46.4338914,-87.64043701,Marquette
1285,26105,8324,117,43.99509218,-86.24988902,Mason
1286,26107,10271,127,43.64064262,-85.32463223,Mecosta
1287,26109,7125,85,45.58038692,-87.55370409,Menominee
1288,26111,23428,261,43.64330771,-84.38804374,Midland
1289,26113,3572,69,44.33772443,-85.09256478,Missaukee
1290,26115,48190,536,41.92734151,-83.53749864,Monroe
1291,26117,17902,245,43.31082541,-85.15252824,Montcalm
1292,26119,1986,53,45.0275929,-84.12696227,Montmorency
1293,26121,48540,717,43.29123859,-86.15176712,Muskegon
1294,26123,13668,183,43.554374,-85.80070107,Newaygo
1295,26125,383297,4532,42.66090111,-83.38595416,Oakland
1296,26127,7710,105,43.64124435,-86.26726673,Oceana
1297,26129,5069,119,44.33481032,-84.12725175,Ogemaw
1298,26131,1335,45,46.665226200000006,-89.31390481,Ontonagon
1299,26133,5982,98,43.98992088,-85.32566756,Osceola
1300,26135,1692,61,44.68192279,-84.12939244,Oscoda
1301,26137,6767,117,45.02085831,-84.59898295,Otsego
1302,26139,87690,924,42.95996803,-85.9969107,Ottawa
1303,26141,2380,66,45.34018577,-83.91498656,Presque Isle
1304,26143,5611,129,44.33473082,-84.61067651,Roscommon
1305,26145,60923,1081,43.33433923,-84.05131209999998,Saginaw
1306,26147,50408,943,42.92655373,-82.67937954,St. Clair
1307,26149,16049,238,41.91441767,-85.52797979,St. Joseph
1308,26151,10585,224,43.42406072,-82.82055898,Sanilac
1309,26153,2229,19,46.19235734,-86.19972234,Schoolcraft
1310,26155,22130,266,42.95392800000001,-84.14585902,Shiawassee
1311,26157,15662,315,43.46606813,-83.41897025,Tuscola
1312,26159,20746,332,42.25190229,-86.01939087,Van Buren
1313,26161,109067,640,42.253105,-83.83853204,Washtenaw
1314,26163,533689,9066,42.28098405,-83.281255,Wayne
1315,26165,8652,128,44.33853602,-85.57712739,Wexford
1316,27001,3677,65,46.60962049,-93.4116826,Aitkin
1317,27003,118681,875,45.27476015,-93.24604565,Anoka
1318,27005,10440,102,46.93479392,-95.67158144,Becker
1319,27007,14292,140,47.97373527,-94.93732139,Beltrami
1320,27009,16951,199,45.69804958,-93.99514135,Benton
1321,27011,1757,11,45.42712824,-96.41403739,Big Stone
1322,27013,21247,118,44.03554215,-94.06699781,Blue Earth
1323,27015,7915,90,44.24205652,-94.72562874,Brown
1324,27017,11530,122,46.59180601,-92.67601019,Carlton
1325,27019,31918,144,44.82017001,-93.8009918,Carver
1326,27021,8565,95,46.95043611,-94.32603968,Cass
1327,27023,3803,55,45.02343421,-95.56403693,Chippewa
1328,27025,17198,135,45.5021011,-92.90861945,Chisago
1329,27027,23613,139,46.89289518,-96.48761922,Clay
1330,27029,2513,32,47.57992111,-95.37790562,Clearwater
1331,27031,823,6,47.90504893,-90.52629546,Cook
1332,27033,3765,42,44.00715262,-95.18138802,Cottonwood
1333,27035,19269,189,46.48096553,-94.06755609,Crow Wing
1334,27037,136252,906,44.67172617,-93.06299363,Dakota
1335,27039,6689,24,44.02238415,-92.86244324,Dodge
1336,27041,13300,139,45.93348491,-95.45335469,Douglas
1337,27043,4450,61,43.67381499,-93.94787458,Faribault
1338,27045,5819,35,43.67394126,-92.08980382,Fillmore
1339,27047,10530,90,43.67385583,-93.34884422,Freeborn
1340,27049,15534,154,44.40849741,-92.7234195,Goodhue
1341,27051,1809,16,45.93424769,-96.01139609,Grant
1342,27053,383364,2930,45.00761521,-93.47694895,Hennepin
1343,27055,5460,26,43.67129565,-91.49143057,Houston
1344,27057,6083,69,47.10778564,-94.91693868,Hubbard
1345,27059,11675,132,45.56181234,-93.29487636,Isanti
1346,27061,13509,173,47.51009045,-93.63092229,Itasca
1347,27063,2641,22,43.67423373,-95.15398258,Jackson
1348,27065,4318,62,45.9459309,-93.29275192,Kanabec
1349,27067,15828,150,45.1526059,-95.00586446,Kandiyohi
1350,27069,1241,32,48.77754106,-96.78317184,Kittson
1351,27071,3679,43,48.24539665,-93.78352843,Koochiching
1352,27073,2187,31,44.9973857,-96.17488219,Lac qui Parle
1353,27075,2638,35,47.64270764,-91.44557998,Lake
1354,27077,921,7,48.77217001,-94.90274472,Lake of the Woods
1355,27079,7469,55,44.37136597,-93.72844721,Le Sueur
1356,27081,1512,7,44.41311883,-96.26688165,Lincoln
1357,27083,8242,82,44.41327865,-95.83806103,Lyon
1358,27085,12974,122,44.82367677,-94.27287017,McLeod
1359,27087,2171,19,47.32557075,-95.80921485,Mahnomen
1360,27089,2502,25,48.35825983,-96.37017407,Marshall
1361,27091,6638,75,43.67429718,-94.55099908,Martin
1362,27093,7130,82,45.12328869,-94.52839455,Meeker
1363,27095,8360,135,45.93705297,-93.63236823,Mille Lacs
1364,27097,11096,120,46.01265363,-94.27341528,Morrison
1365,27099,13809,82,43.67142874,-92.75234549,Mower
1366,27101,2387,22,44.02216709,-95.76328482,Murray
1367,27103,9837,75,44.35291112,-94.24710352,Nicollet
1368,27105,8099,65,43.67434621,-95.75329576,Nobles
1369,27107,1789,16,47.32628443,-96.45620947,Norman
1370,27109,52774,227,44.00374114,-92.40209944,Olmsted
1371,27111,16252,189,46.40846929,-95.70835255,Otter Tail
1372,27113,4299,44,48.06642577,-96.0370814,Pennington
1373,27115,8535,75,46.12105238,-92.74070188,Pine
1374,27117,2366,37,44.02301619,-96.25841142,Pipestone
1375,27119,10601,128,47.77372465,-96.40134647,Polk
1376,27121,3942,23,45.58606667,-95.44451209,Pope
1377,27123,158467,1533,45.01625271,-93.09872295,Ramsey
1378,27125,1062,14,47.87197525,-96.09561104,Red Lake
1379,27127,4705,58,44.40555844,-95.25207021,Redwood
1380,27129,4512,59,44.72836381,-94.94553734,Renville
1381,27131,20656,206,44.3543376,-93.29658715,Rice
1382,27133,2773,35,43.67482683,-96.25296832,Rock
1383,27135,5048,48,48.77501878,-95.81079919,Roseau
1384,27137,60254,615,47.6048407,-92.46879855,St. Louis
1385,27139,47725,295,44.6490231,-93.53340251,Scott
1386,27141,31841,196,45.44447208,-93.77617511,Sherburne
1387,27143,4238,29,44.5796592,-94.23164924,Sibley
1388,27145,61281,419,45.55192576,-94.61078221,Stearns
1389,27147,11994,76,44.02240351,-93.22627088,Steele
1390,27149,3295,17,45.58613007,-96.00163705,Stevens
1391,27151,2718,34,45.2829032,-95.68264092,Swift
1392,27153,8416,73,46.06996226,-94.89785296,Todd
1393,27155,1015,11,45.77298854,-96.47062949,Traverse
1394,27157,6650,19,44.28424356,-92.23121312,Wabasha
1395,27159,5197,67,46.58589171,-94.96968506,Wadena
1396,27161,6351,45,44.02211116,-93.58720034,Waseca
1397,27163,82197,566,45.03864533,-92.88429635,Washington
1398,27165,3434,26,43.97823903,-94.61413846,Watonwan
1399,27167,1940,25,46.35721532,-96.4684375,Wilkin
1400,27169,15811,83,43.98772283,-91.78081305,Winona
1401,27171,42593,344,45.17297924,-93.96234781,Wright
1402,27173,3117,31,44.71710183,-95.86842453,Yellow Medicine
1403,28001,8551,153,31.47669768,-91.35326037,Adams
1404,28003,12759,173,34.88084463,-88.57996173,Alcorn
1405,28005,3873,70,31.17467303,-90.80501621,Amite
1406,28007,6751,124,33.08658803,-89.57838564,Attala
1407,28009,2808,51,34.81681228,-89.18945516,Benton
1408,28011,11537,194,33.79696941,-90.87372121,Bolivar
1409,28013,5575,79,33.93683395,-89.33686647,Calhoun
1410,28015,3062,58,33.44834567,-89.91994479,Carroll
1411,28017,6974,104,33.91983202,-88.9481545,Chickasaw
1412,28019,2889,36,33.34598242,-89.24809382,Choctaw
1413,28021,2556,50,31.97061673,-90.90702196,Claiborne
1414,28023,4869,112,32.04158545,-88.68896219999998,Clarke
1415,28025,6195,103,33.65358105,-88.77784255,Clay
1416,28027,8130,139,34.22772299,-90.60415045,Coahoma
1417,28029,9174,129,31.86977774,-90.44565118,Copiah
1418,28031,8623,122,31.63225413,-89.55389939,Covington
1419,28033,61278,583,34.87625235,-89.99091418,DeSoto
1420,28035,27332,328,31.18961454,-89.25832496,Forrest
1421,28037,2350,40,31.47786634,-90.89672989,Franklin
1422,28039,8737,91,30.86259065,-88.64436789,George
1423,28041,3879,61,31.21444233,-88.63922281,Greene
1424,28043,6391,142,33.77036166,-89.80245083,Grenada
1425,28045,14892,162,30.41830223,-89.48851033,Hancock
1426,28047,65685,712,30.51359752,-89.12467576,Harrison
1427,28049,67443,856,32.2656285,-90.44435448,Hinds
1428,28051,5218,107,33.12345854,-90.08923538,Holmes
1429,28053,2363,48,33.12825718,-90.52252707,Humphreys
1430,28055,307,9,32.72531359,-90.97392828,Issaquena
1431,28057,9409,151,34.27993475,-88.3606733,Itawamba
1432,28059,45664,500,30.54020656,-88.64184064,Jackson
1433,28061,6129,86,32.01922104,-89.11786866,Jasper
1434,28063,1787,40,31.73397872,-91.03764977,Jefferson
1435,28065,3650,57,31.56884708,-89.82670990000004,Jefferson Davis
1436,28067,26370,315,31.62257767,-89.16896899999998,Jones
1437,28069,2608,51,32.75462946,-88.64105766,Kemper
1438,28071,18835,189,34.35687874,-89.48490961,Lafayette
1439,28073,21861,170,31.20572971,-89.5077704,Lamar
1440,28075,21956,385,32.40419769,-88.66229662,Lauderdale
1441,28077,4534,59,31.55147224,-90.10841127,Lawrence
1442,28079,7632,127,32.7536828,-89.52402044,Leake
1443,28081,33805,328,34.291877500000005,-88.68149954,Lee
1444,28083,8616,183,33.55545125,-90.29900733,Leflore
1445,28085,10454,165,31.53288662,-90.45391915,Lincoln
1446,28087,21214,255,33.47386518,-88.44191529999998,Lowndes
1447,28089,31529,350,32.63389156,-90.03513564,Madison
1448,28091,8750,148,31.23132643,-89.8209217,Marion
1449,28093,11991,189,34.76216286,-89.50299462,Marshall
1450,28095,13685,232,33.89236763,-88.4808438,Monroe
1451,28097,3677,83,33.49419589,-89.61729103,Montgomery
1452,28099,12777,247,32.75339664,-89.11726492,Neshoba
1453,28101,7099,104,32.40021118,-89.11843336,Newton
1454,28103,3619,52,33.11009499,-88.56949061,Noxubee
1455,28105,13696,173,33.42491685,-88.87905132,Oktibbeha
1456,28107,12403,180,34.36398677,-89.95064249,Panola
1457,28109,17764,289,30.77090935,-89.58677275,Pearl River
1458,28111,3733,66,31.17161885,-88.99281835,Perry
1459,28113,12737,196,31.17507789,-90.40392572,Pike
1460,28115,12790,158,34.226046000000004,-89.03636807,Pontotoc
1461,28117,10205,115,34.61810501,-88.51986294,Prentiss
1462,28119,1831,34,34.25157572,-90.28908,Quitman
1463,28121,46671,528,32.26469147,-89.94537876,Rankin
1464,28123,7845,122,32.406704100000006,-89.53789439,Scott
1465,28125,1163,28,32.88149103,-90.8159538,Sharkey
1466,28127,8609,160,31.91282117,-89.91716179,Simpson
1467,28129,5050,72,32.01744532,-89.50644846,Smith
1468,28131,6704,82,30.79187949,-89.11547539,Stone
1469,28133,7048,133,33.60192578,-90.58882684,Sunflower
1470,28135,3848,68,33.95339918,-90.1729398,Tallahatchie
1471,28137,8693,158,34.65133709,-89.94485778,Tate
1472,28139,8916,117,34.76872156,-88.90988194,Tippah
1473,28141,7679,123,34.74023475,-88.23917219,Tishomingo
1474,28143,3049,50,34.64967704,-90.37481167,Tunica
1475,28145,11592,133,34.49162015,-89.00776006,Union
1476,28147,4661,83,31.14971548,-90.10446654,Walthall
1477,28149,12707,219,32.35810271,-90.83352619,Warren
1478,28151,12909,212,33.28392041,-90.94196237,Washington
1479,28153,6954,91,31.64135687,-88.69573913,Wayne
1480,28155,4042,74,33.61300486,-89.28392912,Webster
1481,28157,1942,47,31.16078225,-91.31018819,Wilkinson
1482,28159,6712,104,33.08747908,-89.03391385,Winston
1483,28161,4824,63,34.02824175,-89.70762049999998,Yalobusha
1484,28163,9985,116,32.77890365,-90.39656148,Yazoo
1485,29001,6706,71,40.19058551,-92.60078167,Adair
1486,29003,5647,66,39.98492163,-94.80163024,Andrew
1487,29005,1810,24,40.43238737,-95.42970639,Atchison
1488,29007,6840,125,39.215877,-91.84242683,Audrain
1489,29009,7929,151,36.70978521,-93.82919888,Barry
1490,29011,3359,57,37.50207671,-94.34757022,Barton
1491,29013,4449,103,38.25271289,-94.34113157,Bates
1492,29015,5476,113,38.29503305,-93.28756116,Benton
1493,29017,3250,48,37.32449052,-90.02725304,Bollinger
1494,29019,52930,299,38.99186229,-92.30723575,Boone
1495,29021,29662,348,39.65816401,-94.80138942,Buchanan
1496,29023,12357,182,36.71462476,-90.40421163,Butler
1497,29025,2071,42,39.65620858,-93.98308093,Caldwell
1498,29027,14359,148,38.83674754,-91.92186505,Callaway
1499,29029,10848,196,38.02199522,-92.76083747,Camden
1500,29031,23374,272,37.38489388,-89.6843587,Cape Girardeau
1501,29033,2676,48,39.42762566,-93.50626255,Carroll
1502,29035,1725,24,36.94160441,-90.96051322,Carter
1503,29037,30114,347,38.64789422,-94.353399,Cass
1504,29039,3718,60,37.72391475,-93.85445441,Cedar
1505,29041,1995,43,39.51499357,-92.9629191,Chariton
1506,29043,24886,290,36.9711783,-93.18537118,Christian
1507,29045,1915,49,40.41040752,-91.73661677,Clark
1508,29047,33437,410,39.31132056,-94.41850862,Clay
1509,29049,5739,130,39.6013098,-94.40465394,Clinton
1510,29051,23893,305,38.50455671,-92.27860244,Cole
1511,29053,4773,80,38.844478,-92.80896081,Cooper
1512,29055,6536,117,37.97663738,-91.30528104,Crawford
1513,29057,1806,49,37.431814,-93.8503345,Dade
1514,29059,4685,83,37.6811355,-93.02127031,Dallas
1515,29061,2022,32,39.96145298,-93.98519678,Daviess
1516,29063,2545,51,39.89201062,-94.40476508,DeKalb
1517,29065,3944,93,37.60663134,-91.50790473,Dent
1518,29067,3056,87,36.9325593,-92.49905109,Douglas
1519,29069,9677,138,36.27167174,-90.09122243,Dunklin
1520,29071,31317,414,38.41127108,-91.07522826,Franklin
1521,29073,4081,114,38.43947277,-91.50847147,Gasconade
1522,29075,2683,37,40.21097916,-94.40944419,Gentry
1523,29077,84680,1152,37.2575872,-93.34230916,Greene
1524,29079,3127,75,40.11406587,-93.56509276,Grundy
1525,29081,2463,36,40.35570088,-93.99222144,Harrison
1526,29083,7051,95,38.38482826,-93.79293734,Henry
1527,29085,2397,59,37.94163617,-93.3203037,Hickory
1528,29087,1314,34,40.09799248,-95.2163888,Holt
1529,29089,2949,37,39.1435761,-92.69756691,Howard
1530,29091,10959,233,36.77383887,-91.88683935,Howell
1531,29093,2687,50,37.55487945,-90.7735296,Iron
1532,29095,120448,1384,39.01002188,-94.34724536,Jackson
1533,29097,40678,579,37.20351921,-94.34050458,Jasper
1534,29099,67598,745,38.25926778,-90.53870896,Jefferson
1535,29101,14680,152,38.74719601,-93.80691168,Johnson
1536,29103,1184,16,40.12699751,-92.14780832,Knox
1537,29105,9588,193,37.65896829,-92.5888493,Laclede
1538,29107,9221,145,39.06986886,-93.78076396,Lafayette
1539,29109,9270,184,37.10626634,-93.83293097,Lawrence
1540,29111,3350,44,40.09673161,-91.72070156,Lewis
1541,29113,18428,162,39.05345619,-90.95588181,Lincoln
1542,29115,3165,75,39.87001769,-93.10704106,Linn
1543,29117,4449,108,39.78110272,-93.54645978,Livingston
1544,29119,6182,79,36.62869595,-94.34867205,McDonald
1545,29121,4262,68,39.83049768,-92.56453089,Macon
1546,29123,4247,59,37.47865134,-90.3467143,Madison
1547,29125,1955,42,38.16193985,-91.92249662,Maries
1548,29127,9761,135,39.80601912,-91.62203062,Marion
1549,29129,901,17,40.42212303,-93.5682959,Mercer
1550,29131,7033,128,38.21450288,-92.42610898,Miller
1551,29133,4406,64,36.82516239,-89.29505753,Mississippi
1552,29135,4364,61,38.63571781,-92.57976951,Moniteau
1553,29137,2500,51,39.49593978,-92.00043978,Monroe
1554,29139,3097,63,38.94022054,-91.47000721,Montgomery
1555,29141,4902,124,38.4181765,-92.88791859,Morgan
1556,29143,6089,91,36.59666326,-89.66070007,New Madrid
1557,29145,13773,222,36.90519407,-94.3394104,Newton
1558,29147,7206,51,40.36079813,-94.88133008,Nodaway
1559,29149,2421,41,36.68710164,-91.4033755,Oregon
1560,29151,3761,51,38.46036182,-91.8613635,Osage
1561,29153,2033,66,36.64916339,-92.44459066,Ozark
1562,29155,3774,88,36.2130572,-89.78742322,Pemiscot
1563,29157,6318,51,37.70660776,-89.82741088,Perry
1564,29159,14892,191,38.72798918,-93.28471706,Pettis
1565,29161,12844,263,37.87736118,-91.79351727,Phelps
1566,29163,5197,65,39.34310674,-91.16980779,Pike
1567,29165,12774,108,39.38154439,-94.77068479,Platte
1568,29167,9903,121,37.6162296,-93.39828174,Polk
1569,29169,10746,132,37.82462075,-92.20783203,Pulaski
1570,29171,1174,26,40.47942497,-93.02042674,Putnam
1571,29173,2941,30,39.52817427,-91.51838643,Ralls
1572,29175,7167,114,39.44007257,-92.4971374,Randolph
1573,29177,6187,102,39.3537468,-93.98905745,Ray
1574,29179,1382,27,37.36085952,-90.97009925,Reynolds
1575,29181,3189,68,36.65460667,-90.85990261,Ripley
1576,29183,119119,1048,38.77875681,-90.66662425,St. Charles
1577,29185,2613,44,38.03699437,-93.77631447,St. Clair
1578,29186,4833,41,37.89090059,-90.1949941,Ste. Genevieve
1579,29187,23400,330,37.81214171,-90.47598685,St. Francois
1580,29189,293152,3710,38.63770039999999,-90.4458375,St. Louis
1581,29195,7213,117,39.13734288,-93.20259964,Saline
1582,29197,891,27,40.46921489,-92.52311943,Schuyler
1583,29199,836,20,40.45214695,-92.14709064,Scotland
1584,29201,13821,172,37.05588075,-89.56474493,Scott
1585,29203,1914,42,37.15772072,-91.40190382,Shannon
1586,29205,2067,18,39.79742518,-92.07634971,Shelby
1587,29207,7163,150,36.85571651,-89.9444155,Stoddard
1588,29209,6927,132,36.75000327,-93.45256475,Stone
1589,29211,2041,29,40.2099105,-93.11150106,Sullivan
1590,29213,16018,252,36.65465345,-93.04075153,Taney
1591,29215,5638,113,37.31728859,-91.96564727,Texas
1592,29217,6136,115,37.8457799,-94.34127305,Vernon
1593,29219,9894,116,38.76529479,-91.16124662,Warren
1594,29221,7061,153,37.96130078,-90.87948158,Washington
1595,29223,2956,57,37.11303869,-90.46001416,Wayne
1596,29225,10330,165,37.2813734,-92.876329,Webster
1597,29227,559,5,40.47945588,-94.42328751,Worth
1598,29229,4574,95,37.27029221,-92.46914488,Wright
1599,29510,75865,861,38.63555736,-90.24349225,St. Louis City
1600,30001,2460,32,45.13434354,-112.8984694,Beaverhead
1601,30003,5852,103,45.42335905,-107.492347,Big Horn
1602,30005,2585,34,48.43175214,-108.9582723,Blaine
1603,30007,1537,22,46.33277565,-111.4955813,Broadwater
1604,30009,2454,30,45.22850116,-109.0274047,Carbon
1605,30011,290,5,45.5197966,-104.5395536,Carter
1606,30013,29952,374,47.30797024,-111.3467922,Cascade
1607,30015,1346,15,47.88084126,-110.4353362,Chouteau
1608,30017,3509,52,46.25319932,-105.57375259999998,Custer
1609,30019,482,9,48.78420029,-105.54763429999998,Daniels
1610,30021,2761,60,47.26584855,-104.89444170000002,Dawson
1611,30023,3232,30,46.05953325,-113.073353,Deer Lodge
1612,30025,796,12,46.33478338,-104.4183565,Fallon
1613,30027,2956,61,47.26331584,-109.2245206,Fergus
1614,30029,33761,302,48.29575866,-114.0520569,Flathead
1615,30031,41356,134,45.54486106,-111.1692571,Gallatin
1616,30033,251,3,47.27545948,-107.0002351,Garfield
1617,30035,4708,77,48.70513576,-112.9934235,Glacier
1618,30037,173,5,46.3816474,-109.1768522,Golden Valley
1619,30039,668,10,46.40605220000001,-113.4414186,Granite
1620,30041,5383,77,48.62879827,-110.1129252,Hill
1621,30043,3140,26,46.14907081,-112.094396,Jefferson
1622,30045,283,1,47.04581276,-110.2660688,Judith Basin
1623,30047,8282,107,47.64514965,-114.0898013,Lake
1624,30049,21796,202,47.12610041,-112.394698,Lewis and Clark
1625,30051,528,4,48.56084317,-111.024307,Liberty
1626,30053,5607,96,48.54265777,-115.4046155,Lincoln
1627,30055,452,9,47.64469406,-105.7944994,McCone
1628,30057,2388,23,45.30080065,-111.9173017,Madison
1629,30059,596,12,46.59907074,-110.8898557,Meagher
1630,30061,1360,17,47.15283992,-115.0015239,Mineral
1631,30063,33786,224,47.03728583,-113.92135079999998,Missoula
1632,30065,1099,31,46.49684637,-108.39498,Musselshell
1633,30067,5118,39,45.48965095,-110.52643940000002,Park
1634,30069,43,1,47.1182463,-108.2508876,Petroleum
1635,30071,1143,30,48.25936577,-107.9128511,Phillips
1636,30073,1475,11,48.22773388,-112.2252703,Pondera
1637,30075,417,10,45.39617714,-105.636738,Powder River
1638,30077,2211,32,46.85538891,-112.9359164,Powell
1639,30079,292,4,46.86048047,-105.379384,Prairie
1640,30081,8452,174,46.08520862,-114.11891640000002,Ravalli
1641,30083,2995,39,47.78668011,-104.5610786,Richland
1642,30085,3978,76,48.29607488,-105.0079268,Roosevelt
1643,30087,3111,63,46.23397237,-106.72928799999998,Rosebud
1644,30089,2410,53,47.67657534,-115.1329916,Sanders
1645,30091,901,13,48.72085833,-104.503829,Sheridan
1646,30093,9899,139,45.90018933,-112.6620092,Silver Bow
1647,30095,1725,32,45.67071407,-109.3950061,Stillwater
1648,30097,908,13,45.81367654,-109.9425686,Sweet Grass
1649,30099,1534,27,47.83741052,-112.2410688,Teton
1650,30101,1403,25,48.65577551,-111.6942414,Toole
1651,30103,148,1,46.20973220000001,-107.2666516,Treasure
1652,30105,2144,42,48.36435097,-106.6669635,Valley
1653,30107,459,14,46.46652491,-109.8464636,Wheatland
1654,30109,245,8,46.95925154,-104.2510927,Wibaux
1655,30111,51037,604,45.93955949,-108.2691486,Yellowstone
1656,31001,7751,91,40.52449420000001,-98.50117804,Adams
1657,31003,1282,19,42.17695516,-98.0666283,Antelope
1658,31005,34,1,41.56896142,-101.6959559,Arthur
1659,31007,102,2,41.54634427,-103.7114332,Banner
1660,31009,76,4,41.91311716,-99.97677845,Blaine
1661,31011,1260,15,41.70759415,-98.06737183,Boone
1662,31013,2505,26,42.22079243,-103.0878834,Box Butte
1663,31015,473,13,42.8997274,-98.76486568,Boyd
1664,31017,648,7,42.43018907,-99.92904055,Brown
1665,31019,14120,146,40.85486962,-99.07500296,Buffalo
1666,31021,1535,25,41.85056773,-96.32605633,Burt
1667,31023,2280,20,41.22703692,-97.13106306,Butler
1668,31025,7223,51,40.90899107,-96.13971217,Cass
1669,31027,1735,28,42.5988851,-97.25311951,Cedar
1670,31029,888,10,40.5237198,-101.6978026,Chase
1671,31031,624,14,42.54502621,-101.1244332,Cherry
1672,31033,2382,30,41.21999357,-102.9941693,Cheyenne
1673,31035,1724,32,40.52439441,-98.05126296,Clay
1674,31037,2935,31,41.57486951,-97.0868542,Colfax
1675,31039,2032,23,41.91637624,-96.78730772,Cuming
1676,31041,2384,38,41.39374521,-99.72805369,Custer
1677,31043,7881,87,42.39040144,-96.56656425,Dakota
1678,31045,1499,25,42.71985036,-103.1313774,Dawes
1679,31047,5899,87,40.87028216,-99.8201461,Dawson
1680,31049,355,4,41.11168186,-102.3333331,Deuel
1681,31051,1394,19,42.49188363,-96.86782408,Dixon
1682,31053,11907,154,41.58071748,-96.65598179,Dodge
1683,31055,177980,1248,41.29518299,-96.15085305,Douglas
1684,31057,404,6,40.17638677,-101.6876522,Dundy
1685,31059,1310,19,40.52458567,-97.59646937,Fillmore
1686,31061,496,14,40.17636348,-98.95299073,Franklin
1687,31063,613,4,40.52993007,-100.3924658,Frontier
1688,31065,1307,18,40.17642064,-99.91247454,Furnas
1689,31067,4531,62,40.26186809,-96.68946704,Gage
1690,31069,474,5,41.61703149,-102.3313973,Garden
1691,31071,468,10,41.91428955,-98.99111827,Garfield
1692,31073,447,9,40.51481965,-99.83020279,Gosper
1693,31075,114,6,41.91528587,-101.740701,Grant
1694,31077,464,6,41.56742671,-98.52150266,Greeley
1695,31079,19358,176,40.87257079,-98.50218293,Hall
1696,31081,2786,27,40.87349452,-98.02099117,Hamilton
1697,31083,401,7,40.17658508,-99.40438879,Harlan
1698,31085,113,0,40.52451972,-101.0603568,Hayes
1699,31087,626,11,40.17609175,-101.0416477,Hitchcock
1700,31089,2574,24,42.45522056,-98.78402558,Holt
1701,31091,127,5,41.91586243,-101.1354293,Hooker
1702,31093,1326,25,41.2200529,-98.5166499,Howard
1703,31095,1427,15,40.17584531,-97.142601,Jefferson
1704,31097,939,16,40.39257596,-96.26522753,Johnson
1705,31099,1377,13,40.50663314,-98.94877182,Kearney
1706,31101,1787,30,41.19930341,-101.6620164,Keith
1707,31103,135,0,42.87990694,-99.71343729,Keya Paha
1708,31105,829,16,41.19774275,-103.7148131,Kimball
1709,31107,1951,19,42.63758421,-97.89178836,Knox
1710,31109,93628,474,40.78416049,-96.68777155,Lancaster
1711,31111,10710,142,41.04658298,-100.7475374,Lincoln
1712,31113,164,0,41.56650314,-100.4817851,Logan
1713,31115,99,0,41.91371961,-99.45440415,Loup
1714,31117,77,1,41.56797682,-101.0599362,McPherson
1715,31119,11460,82,41.91676024,-97.6005481,Madison
1716,31121,2052,25,41.16624273,-98.0374887,Merrick
1717,31123,1347,36,41.71711774,-103.0061405,Morrill
1718,31125,883,17,41.39750195,-97.99327291,Nance
1719,31127,1590,32,40.38514847,-95.85433992,Nemaha
1720,31129,1097,19,40.17637905,-98.04743961,Nuckolls
1721,31131,3865,29,40.64843556,-96.13374142,Otoe
1722,31133,513,9,40.13141096,-96.23705437,Pawnee
1723,31135,575,13,40.85082525,-101.6502942,Perkins
1724,31137,2746,26,40.51156033,-99.41461667,Phelps
1725,31139,1516,27,42.26434853,-97.60122773,Pierce
1726,31141,10154,86,41.57246836,-97.52144359,Platte
1727,31143,1374,26,41.18813488,-97.56630712,Polk
1728,31145,2662,25,40.17556879999999,-100.476998,Red Willow
1729,31147,2251,33,40.1247415,-95.71755036,Richardson
1730,31149,192,3,42.42252217,-99.44832069,Rock
1731,31151,4385,18,40.52418865,-97.14085859,Saline
1732,31153,58381,327,41.11314181,-96.11156432,Sarpy
1733,31155,5565,56,41.2278103,-96.63773905,Saunders
1734,31157,11223,154,41.85070896,-103.7080986,Scotts Bluff
1735,31159,3715,52,40.87241834,-97.139673,Seward
1736,31161,1112,40,42.50284406,-102.4126613,Sheridan
1737,31163,686,9,41.22045983,-98.97588642,Sherman
1738,31165,82,1,42.48932059,-103.7576544,Sioux
1739,31167,778,13,41.9169835,-97.19394708,Stanton
1740,31169,1291,13,40.17626377,-97.59504381,Thayer
1741,31171,113,1,41.91358968,-100.5556632,Thomas
1742,31173,2092,34,42.15725356,-96.54157099,Thurston
1743,31175,870,12,41.56730777,-98.98197724,Valley
1744,31177,5436,54,41.52815707,-96.22019892,Washington
1745,31179,2129,18,42.20934475,-97.11926964,Wayne
1746,31181,843,14,40.17642643,-98.50019851,Webster
1747,31183,139,2,41.91482725,-98.52798941,Wheeler
1748,31185,4678,33,40.87272618,-97.59710186,York
1749,32001,7607,123,39.58105744,-118.3394607,Churchill
1750,32003,669466,9308,36.21458855,-115.0130241,Clark
1751,32005,8794,98,38.912862,-119.6171333,Douglas
1752,32007,12884,151,41.14531606,-115.3577619,Elko
1753,32009,124,5,37.78436681,-117.6319999,Esmeralda
1754,32011,309,2,39.98100864,-116.2683204,Eureka
1755,32013,4509,66,41.40692186,-118.1109427,Humboldt
1756,32015,1347,22,39.9332233,-117.0397075,Lander
1757,32017,995,11,37.64268459,-114.8790388,Lincoln
1758,32019,12232,185,39.01777974,-119.1870479,Lyon
1759,32021,1500,20,38.53841696,-118.4344506,Mineral
1760,32023,9137,305,38.04264256,-116.4722702,Nye
1761,32027,2358,32,40.44003782,-118.40056409999998,Pershing
1762,32029,345,14,39.44875482,-119.5250207,Storey
1763,32031,127835,1306,40.66562265,-119.6631594,Washoe
1764,32033,1947,26,39.44157041,-114.899966,White Pine
1765,32510,17383,238,39.15509045,-119.7480219,Carson City
1766,33001,17387,217,43.51637314,-71.41684235,Belknap
1767,33003,12251,75,43.87498583,-71.20430216,Carroll
1768,33005,18985,134,42.92015988,-72.25311043,Cheshire
1769,33007,8310,134,44.69063265,-71.30633239,Coos
1770,33009,23206,103,43.93779815,-71.82057197,Grafton
1771,33011,121066,1036,42.91537785,-71.7200253,Hillsborough
1772,33013,40097,305,43.29662971,-71.6811573,Merrimack
1773,33015,84167,648,42.98499744,-71.12883377,Rockingham
1774,33017,36908,249,43.291833,-71.02336013,Strafford
1775,33019,11838,82,43.36094111,-72.22203125,Sullivan
1776,34001,91213,1080,39.47538693,-74.65848483,Atlantic
1777,34003,325206,3722,40.96010917,-74.07164325,Bergen
1778,34005,141140,1373,39.87681124,-74.66927768,Burlington
1779,34007,168704,1970,39.80343818,-74.96388753,Camden
1780,34009,30356,332,39.15008829,-74.80170244,Cape May
1781,34011,52600,663,39.37199394,-75.10712559,Cumberland
1782,34013,290924,3768,40.78681335,-74.24657979,Essex
1783,34015,91128,1048,39.71581067,-75.13995546,Gloucester
1784,34017,237544,2851,40.73766234,-74.07515667,Hudson
1785,34019,34528,304,40.56335249,-74.91284156,Hunterdon
1786,34021,111001,1343,40.28047017,-74.70479631,Mercer
1787,34023,274583,3032,40.43629879,-74.41426991,Middlesex
1788,34025,222745,2377,40.26549699,-74.22240686,Monmouth
1789,34027,165229,1673,40.86095313,-74.54553709999998,Morris
1790,34029,215146,3278,39.8895449,-74.28089251,Ocean
1791,34031,192908,2457,41.03238628,-74.29954144,Passaic
1792,34033,18472,301,39.58719656,-75.34696629999998,Salem
1793,34035,97844,1076,40.56465737,-74.61683016,Somerset
1794,34037,45502,517,41.13891592,-74.69118243,Sussex
1795,34039,195822,2495,40.65835409,-74.30680092,Union
1796,34041,32003,560,40.85951833,-74.99556527,Warren
1797,35001,196419,2231,35.05163625,-106.6703554,Bernalillo
1798,35003,530,23,33.91514144,-108.4046587,Catron
1799,35005,24688,361,33.36406072,-104.4665365,Chaves
1800,35006,9289,212,34.91131525,-107.998876,Cibola
1801,35007,2799,70,36.60569702,-104.64726740000002,Colfax
1802,35009,15327,235,34.57421077,-103.3468876,Curry
1803,35011,753,6,34.34274529,-104.4117842,De Baca
1804,35013,76629,934,32.35275771,-106.8329387,Dona Ana
1805,35015,19248,325,32.47167456,-104.3053527,Eddy
1806,35017,9831,115,32.73911281,-108.3827845,Grant
1807,35019,1363,18,34.86319296,-104.790669,Guadalupe
1808,35021,103,4,35.85751555,-103.8220938,Harding
1809,35023,1337,17,31.91383467,-108.7151824,Hidalgo
1810,35025,22913,410,32.79215361,-103.4123733,Lea
1811,35027,6583,75,33.74526079,-105.4586166,Lincoln
1812,35028,4582,25,35.86631386,-106.3134985,Los Alamos
1813,35029,8006,151,32.18179341,-107.75088259999998,Luna
1814,35031,33005,653,35.58007720000001,-108.262245,McKinley
1815,35033,984,22,36.01095101,-104.9497716,Mora
1816,35035,17078,228,32.61348406,-105.7417604,Otero
1817,35037,2555,70,35.10403332,-103.5481727,Quay
1818,35039,13288,165,36.51072137,-106.6931674,Rio Arriba
1819,35041,6200,110,34.02097406,-103.4799493,Roosevelt
1820,35043,44827,511,35.68862401,-106.8687803,Sandoval
1821,35045,52265,862,36.50838318,-108.320437,San Juan
1822,35047,7641,84,35.48014807,-104.8163562,San Miguel
1823,35049,40118,398,35.50708973,-105.9774716,Santa Fe
1824,35051,2490,87,33.13028233,-107.1925893,Sierra
1825,35053,4736,102,34.00715494,-106.9298354,Socorro
1826,35055,7273,107,36.58006022,-105.6310198,Taos
1827,35057,3320,61,34.64048375,-105.8508949,Torrance
1828,35059,932,20,36.48126404,-103.4709624,Union
1829,35061,23976,325,34.71669834,-106.8103733,Valencia
1830,36001,79033,610,42.60060306,-73.97723916,Albany
1831,36003,10819,164,42.25748406,-78.02750466,Allegany
1832,36005,551497,8538,40.85209301,-73.86282755,Bronx
1833,36007,58871,598,42.15903158,-75.81326086,Broome
1834,36009,19313,251,42.24778241,-78.67923096,Cattaraugus
1835,36011,20541,181,42.91261714,-76.55731592,Cayuga
1836,36013,29542,340,42.22769210000001,-79.36691763,Chautauqua
1837,36015,26685,264,42.13891056,-76.7638805,Chemung
1838,36017,11847,141,42.49430041,-75.60887553,Chenango
1839,36019,22709,131,44.74530905,-73.67875352,Clinton
1840,36021,13962,172,42.24819348,-73.63089095,Columbia
1841,36023,13445,135,42.59509207,-76.07048931,Cortland
1842,36025,10206,92,42.19837623,-74.96709306,Delaware
1843,36027,85148,738,41.76486060000001,-73.74356679,Dutchess
1844,36029,269977,2903,42.76249024,-78.73063652,Erie
1845,36031,7740,80,44.11630765,-73.77297842,Essex
1846,36033,12124,57,44.59040891,-74.29926032,Franklin
1847,36035,16644,186,43.11363907,-74.41798804,Fulton
1848,36037,16636,208,43.0022601,-78.19135193,Genesee
1849,36039,11071,153,42.275797,-74.12384884,Greene
1850,36041,1100,5,43.66146647,-74.49721957,Hamilton
1851,36043,17543,212,43.42034246,-74.96145307,Herkimer
1852,36045,27310,160,44.04200959,-75.94653457,Jefferson
1853,36047,960777,14205,40.6361825,-73.94935552,Kings
1854,36049,7375,58,43.7844157,-75.44903992,Lewis
1855,36051,14429,140,42.72596275,-77.77966158,Livingston
1856,36053,16888,145,42.91653905,-75.67266639,Madison
1857,36055,192658,1849,43.14638895,-77.69322942,Monroe
1858,36057,15093,237,42.90123494,-74.44011632,Montgomery
1859,36059,549547,4328,40.74066522,-73.58941873,Nassau
1860,36061,594091,6172,40.76727260000001,-73.97152637,New York
1861,36063,59786,632,43.19898042,-78.74777412,Niagara
1862,36065,69358,874,43.24375382,-75.43710392,Oneida
1863,36067,143039,1196,43.00491923,-76.19971155,Onondaga
1864,36069,26263,219,42.85145728,-77.30874425,Ontario
1865,36071,146219,1255,41.40337468,-74.30240757,Orange
1866,36073,10608,130,43.2516977,-78.2320066,Orleans
1867,36075,34780,237,43.42778894,-76.14635194,Oswego
1868,36077,13365,108,42.63492579,-75.03151402,Otsego
1869,36079,31702,146,41.42630093,-73.74965532,Putnam
1870,36081,902027,13417,40.71088124,-73.81684712,Queens
1871,36083,41918,313,42.71348136,-73.51089874,Rensselaer
1872,36085,226763,2709,40.58582155,-74.14808598,Richmond
1873,36087,118921,976,41.15027894,-74.02560498,Rockland
1874,36089,26379,221,44.4976179,-75.06550039,St. Lawrence
1875,36091,61732,414,43.10904162,-73.86653895,Saratoga
1876,36093,43852,375,42.81668777,-74.05278291,Schenectady
1877,36095,6610,44,42.58831742,-74.44339029999998,Schoharie
1878,36097,4337,32,42.39184015,-76.8773299,Schuyler
1879,36099,7693,95,42.78081007,-76.82497064,Seneca
1880,36101,25368,277,42.2689144,-77.3829924,Steuben
1881,36103,568328,4951,40.88320119,-72.8012172,Suffolk
1882,36105,24733,153,41.71579493,-74.76394559,Sullivan
1883,36107,14110,93,42.16852837,-76.30835812,Tioga
1884,36109,26687,101,42.44945765,-76.47229843,Tompkins
1885,36111,43355,419,41.89027881,-74.26252104,Ulster
1886,36113,18993,157,43.56173026,-73.8433699,Warren
1887,36115,15917,136,43.31153794,-73.43043448,Washington
1888,36117,21964,203,43.15494365,-77.02976528,Wayne
1889,36119,335744,2992,41.16278376,-73.75741653,Westchester
1890,36121,9951,95,42.70145109,-78.22199579,Wyoming
1891,36123,4455,43,42.63505484,-77.10369919,Yates
1892,37001,61623,567,36.0434701,-79.39976137,Alamance
1893,37003,12747,158,35.922379600000006,-81.17751948,Alexander
1894,37005,3753,20,36.49360862,-81.12857041,Alleghany
1895,37007,8442,113,34.97403241,-80.09953279,Anson
1896,37009,7606,94,36.43296207,-81.49862729,Ashe
1897,37011,5545,48,36.07569796,-81.92308483,Avery
1898,37013,16038,187,35.48531943,-76.84325809,Beaufort
1899,37015,5454,78,36.0688473,-76.96545943,Bertie
1900,37017,12088,148,34.61296243,-78.56180059,Bladen
1901,37019,40993,377,34.070565,-78.22814204,Brunswick
1902,37021,70777,699,35.61113393,-82.53305,Buncombe
1903,37023,31888,366,35.74989637,-81.70755735,Burke
1904,37025,72029,567,35.3877799,-80.55267168,Cabarrus
1905,37027,30216,357,35.95204977,-81.54799522,Caldwell
1906,37029,2198,10,36.33804939,-76.15568396,Camden
